{"data": [{"name": "澳门特别行政区", "center": {"longitude": 113.543028, "latitude": 22.186835}}, {"name": "花王堂区", "center": {"longitude": 113.548961, "latitude": 22.199207}}, {"name": "望德堂区", "center": {"longitude": 113.550183, "latitude": 22.193721}}, {"name": "大堂区", "center": {"longitude": 113.553647, "latitude": 22.188539}}, {"name": "风顺堂区", "center": {"longitude": 113.541928, "latitude": 22.187368}}, {"name": "花地玛堂区", "center": {"longitude": 113.552896, "latitude": 22.20787}}, {"name": "嘉模堂区", "center": {"longitude": 113.558705, "latitude": 22.15376}}, {"name": "圣方济各堂区", "center": {"longitude": 113.559954, "latitude": 22.123486}}, {"name": "路凼填海区", "center": {"longitude": 113.569599, "latitude": 22.13663}}, {"name": "北京市", "center": {"longitude": 116.407394, "latitude": 39.904211}}, {"name": "北京城区", "center": {"longitude": 116.407394, "latitude": 39.904211}}, {"name": "昌平区", "center": {"longitude": 116.231254, "latitude": 40.220804}}, {"name": "朝阳区", "center": {"longitude": 116.443205, "latitude": 39.921506}}, {"name": "大兴区", "center": {"longitude": 116.341483, "latitude": 39.726917}}, {"name": "东城区", "center": {"longitude": 116.41649, "latitude": 39.928341}}, {"name": "房山区", "center": {"longitude": 116.143486, "latitude": 39.748823}}, {"name": "丰台区", "center": {"longitude": 116.287039, "latitude": 39.858421}}, {"name": "海淀区", "center": {"longitude": 116.298262, "latitude": 39.95993}}, {"name": "怀柔区", "center": {"longitude": 116.631931, "latitude": 40.316053}}, {"name": "门头沟区", "center": {"longitude": 116.101719, "latitude": 39.940338}}, {"name": "密云区", "center": {"longitude": 116.843047, "latitude": 40.376894}}, {"name": "平谷区", "center": {"longitude": 117.121351, "latitude": 40.140595}}, {"name": "石景山区", "center": {"longitude": 116.222933, "latitude": 39.906611}}, {"name": "顺义区", "center": {"longitude": 116.654642, "latitude": 40.130211}}, {"name": "通州区", "center": {"longitude": 116.656434, "latitude": 39.909946}}, {"name": "西城区", "center": {"longitude": 116.365873, "latitude": 39.912235}}, {"name": "延庆区", "center": {"longitude": 115.974981, "latitude": 40.456591}}, {"name": "重庆市", "center": {"longitude": 106.551643, "latitude": 29.562849}}, {"name": "重庆城区", "center": {"longitude": 106.551643, "latitude": 29.562849}}, {"name": "巴南区", "center": {"longitude": 106.540256, "latitude": 29.402408}}, {"name": "北碚区", "center": {"longitude": 106.395612, "latitude": 29.805107}}, {"name": "璧山区", "center": {"longitude": 106.227305, "latitude": 29.592024}}, {"name": "大渡口区", "center": {"longitude": 106.482346, "latitude": 29.484527}}, {"name": "大足区", "center": {"longitude": 105.721733, "latitude": 29.707032}}, {"name": "涪陵区", "center": {"longitude": 107.38977, "latitude": 29.703022}}, {"name": "合川区", "center": {"longitude": 106.27613, "latitude": 29.972084}}, {"name": "江北区", "center": {"longitude": 106.574271, "latitude": 29.606703}}, {"name": "江津区", "center": {"longitude": 106.259281, "latitude": 29.290069}}, {"name": "九龙坡区", "center": {"longitude": 106.510676, "latitude": 29.502272}}, {"name": "开州区", "center": {"longitude": 108.393135, "latitude": 31.160711}}, {"name": "南岸区", "center": {"longitude": 106.644447, "latitude": 29.50126}}, {"name": "南川区", "center": {"longitude": 107.099266, "latitude": 29.15789}}, {"name": "綦江区", "center": {"longitude": 106.651361, "latitude": 29.028066}}, {"name": "黔江区", "center": {"longitude": 108.770677, "latitude": 29.533609}}, {"name": "荣昌区", "center": {"longitude": 105.594623, "latitude": 29.405002}}, {"name": "沙坪坝区", "center": {"longitude": 106.456878, "latitude": 29.541144}}, {"name": "铜梁区", "center": {"longitude": 106.056404, "latitude": 29.844811}}, {"name": "潼南区", "center": {"longitude": 105.840431, "latitude": 30.190992}}, {"name": "万州区", "center": {"longitude": 108.408661, "latitude": 30.807667}}, {"name": "永川区", "center": {"longitude": 105.927001, "latitude": 29.356311}}, {"name": "渝北区", "center": {"longitude": 106.631187, "latitude": 29.718142}}, {"name": "渝中区", "center": {"longitude": 106.568896, "latitude": 29.552736}}, {"name": "长寿区", "center": {"longitude": 107.080734, "latitude": 29.857912}}, {"name": "重庆郊县", "center": {"longitude": 108.165537, "latitude": 29.293902}}, {"name": "城口县", "center": {"longitude": 108.664214, "latitude": 31.947633}}, {"name": "垫江县", "center": {"longitude": 107.33339, "latitude": 30.327716}}, {"name": "丰都县", "center": {"longitude": 107.730894, "latitude": 29.8635}}, {"name": "奉节县", "center": {"longitude": 109.400403, "latitude": 31.018363}}, {"name": "梁平区", "center": {"longitude": 107.769568, "latitude": 30.654233}}, {"name": "彭水苗族土家族自治县", "center": {"longitude": 108.165537, "latitude": 29.293902}}, {"name": "石柱土家族自治县", "center": {"longitude": 108.114069, "latitude": 29.999285}}, {"name": "巫山县", "center": {"longitude": 109.879153, "latitude": 31.074834}}, {"name": "巫溪县", "center": {"longitude": 109.570062, "latitude": 31.398604}}, {"name": "武隆区", "center": {"longitude": 107.760025, "latitude": 29.325601}}, {"name": "秀山土家族苗族自治县", "center": {"longitude": 109.007094, "latitude": 28.447997}}, {"name": "酉阳土家族苗族自治县", "center": {"longitude": 108.767747, "latitude": 28.841244}}, {"name": "云阳县", "center": {"longitude": 108.697324, "latitude": 30.930612}}, {"name": "忠县", "center": {"longitude": 108.039002, "latitude": 30.299559}}, {"name": "福建省", "center": {"longitude": 119.295143, "latitude": 26.100779}}, {"name": "福州市", "center": {"longitude": 119.296389, "latitude": 26.074268}}, {"name": "仓山区", "center": {"longitude": 119.273545, "latitude": 26.046743}}, {"name": "福清市", "center": {"longitude": 119.384201, "latitude": 25.72071}}, {"name": "鼓楼区", "center": {"longitude": 119.303917, "latitude": 26.081983}}, {"name": "晋安区", "center": {"longitude": 119.328521, "latitude": 26.082107}}, {"name": "连江县", "center": {"longitude": 119.539704, "latitude": 26.197364}}, {"name": "罗源县", "center": {"longitude": 119.549776, "latitude": 26.489558}}, {"name": "马尾区", "center": {"longitude": 119.455588, "latitude": 25.9895}}, {"name": "闽侯县", "center": {"longitude": 119.131724, "latitude": 26.150047}}, {"name": "闽清县", "center": {"longitude": 118.863361, "latitude": 26.221197}}, {"name": "平潭县", "center": {"longitude": 119.790168, "latitude": 25.49872}}, {"name": "台江区", "center": {"longitude": 119.314041, "latitude": 26.052843}}, {"name": "永泰县", "center": {"longitude": 118.932592, "latitude": 25.866694}}, {"name": "长乐区", "center": {"longitude": 119.523266, "latitude": 25.962888}}, {"name": "龙岩市", "center": {"longitude": 117.017295, "latitude": 25.075119}}, {"name": "连城县", "center": {"longitude": 116.754472, "latitude": 25.710538}}, {"name": "上杭县", "center": {"longitude": 116.420098, "latitude": 25.049518}}, {"name": "武平县", "center": {"longitude": 116.100414, "latitude": 25.095386}}, {"name": "新罗区", "center": {"longitude": 117.037155, "latitude": 25.098312}}, {"name": "永定区", "center": {"longitude": 116.732091, "latitude": 24.723961}}, {"name": "漳平市", "center": {"longitude": 117.419998, "latitude": 25.290184}}, {"name": "长汀县", "center": {"longitude": 116.357581, "latitude": 25.833531}}, {"name": "南平市", "center": {"longitude": 118.17771, "latitude": 26.641774}}, {"name": "光泽县", "center": {"longitude": 117.334106, "latitude": 27.540987}}, {"name": "建瓯市", "center": {"longitude": 118.304966, "latitude": 27.022774}}, {"name": "建阳区", "center": {"longitude": 118.120464, "latitude": 27.331876}}, {"name": "浦城县", "center": {"longitude": 118.541256, "latitude": 27.917263}}, {"name": "邵武市", "center": {"longitude": 117.492533, "latitude": 27.340326}}, {"name": "顺昌县", "center": {"longitude": 117.810357, "latitude": 26.793288}}, {"name": "松溪县", "center": {"longitude": 118.785468, "latitude": 27.526232}}, {"name": "武夷山市", "center": {"longitude": 118.035309, "latitude": 27.756647}}, {"name": "延平区", "center": {"longitude": 118.182036, "latitude": 26.637438}}, {"name": "政和县", "center": {"longitude": 118.857642, "latitude": 27.366104}}, {"name": "宁德市", "center": {"longitude": 119.547932, "latitude": 26.665617}}, {"name": "福鼎市", "center": {"longitude": 120.216977, "latitude": 27.324479}}, {"name": "福安市", "center": {"longitude": 119.64785, "latitude": 27.08834}}, {"name": "古田县", "center": {"longitude": 118.746284, "latitude": 26.577837}}, {"name": "蕉城区", "center": {"longitude": 119.526299, "latitude": 26.66061}}, {"name": "屏南县", "center": {"longitude": 118.985895, "latitude": 26.908276}}, {"name": "寿宁县", "center": {"longitude": 119.514986, "latitude": 27.454479}}, {"name": "霞浦县", "center": {"longitude": 120.005146, "latitude": 26.885703}}, {"name": "柘荣县", "center": {"longitude": 119.900609, "latitude": 27.233933}}, {"name": "周宁县", "center": {"longitude": 119.339025, "latitude": 27.104591}}, {"name": "厦门市", "center": {"longitude": 118.089204, "latitude": 24.479664}}, {"name": "海沧区", "center": {"longitude": 118.032984, "latitude": 24.484685}}, {"name": "湖里区", "center": {"longitude": 118.146768, "latitude": 24.512904}}, {"name": "集美区", "center": {"longitude": 118.097337, "latitude": 24.575969}}, {"name": "思明区", "center": {"longitude": 118.082649, "latitude": 24.445484}}, {"name": "同安区", "center": {"longitude": 118.152041, "latitude": 24.723234}}, {"name": "翔安区", "center": {"longitude": 118.248034, "latitude": 24.618543}}, {"name": "莆田市", "center": {"longitude": 119.007777, "latitude": 25.454084}}, {"name": "城厢区", "center": {"longitude": 118.993884, "latitude": 25.419319}}, {"name": "涵江区", "center": {"longitude": 119.116289, "latitude": 25.45872}}, {"name": "荔城区", "center": {"longitude": 119.015061, "latitude": 25.431941}}, {"name": "仙游县", "center": {"longitude": 118.691637, "latitude": 25.362093}}, {"name": "秀屿区", "center": {"longitude": 119.105494, "latitude": 25.31836}}, {"name": "三明市", "center": {"longitude": 117.638678, "latitude": 26.263406}}, {"name": "大田县", "center": {"longitude": 117.847115, "latitude": 25.692699}}, {"name": "建宁县", "center": {"longitude": 116.848443, "latitude": 26.833588}}, {"name": "将乐县", "center": {"longitude": 117.471372, "latitude": 26.728952}}, {"name": "梅列区", "center": {"longitude": 117.645855, "latitude": 26.271711}}, {"name": "明溪县", "center": {"longitude": 117.202226, "latitude": 26.355856}}, {"name": "宁化县", "center": {"longitude": 116.654365, "latitude": 26.261754}}, {"name": "清流县", "center": {"longitude": 116.816909, "latitude": 26.177796}}, {"name": "三元区", "center": {"longitude": 117.608044, "latitude": 26.234019}}, {"name": "沙县", "center": {"longitude": 117.792396, "latitude": 26.397199}}, {"name": "泰宁县", "center": {"longitude": 117.17574, "latitude": 26.900259}}, {"name": "永安市", "center": {"longitude": 117.365052, "latitude": 25.941937}}, {"name": "尤溪县", "center": {"longitude": 118.190467, "latitude": 26.170171}}, {"name": "泉州市", "center": {"longitude": 118.675676, "latitude": 24.874132}}, {"name": "安溪县", "center": {"longitude": 118.186288, "latitude": 25.055954}}, {"name": "德化县", "center": {"longitude": 118.241094, "latitude": 25.491493}}, {"name": "丰泽区", "center": {"longitude": 118.613172, "latitude": 24.891173}}, {"name": "惠安县", "center": {"longitude": 118.796607, "latitude": 25.030801}}, {"name": "金门县", "center": {"longitude": 118.323221, "latitude": 24.436417}}, {"name": "晋江市", "center": {"longitude": 118.551682, "latitude": 24.781636}}, {"name": "鲤城区", "center": {"longitude": 118.587097, "latitude": 24.907424}}, {"name": "洛江区", "center": {"longitude": 118.671193, "latitude": 24.939796}}, {"name": "南安市", "center": {"longitude": 118.386279, "latitude": 24.960385}}, {"name": "泉港区", "center": {"longitude": 118.916309, "latitude": 25.119815}}, {"name": "石狮市", "center": {"longitude": 118.648066, "latitude": 24.732204}}, {"name": "永春县", "center": {"longitude": 118.294048, "latitude": 25.321565}}, {"name": "漳州市", "center": {"longitude": 117.647093, "latitude": 24.513025}}, {"name": "东山县", "center": {"longitude": 117.430061, "latitude": 23.701262}}, {"name": "华安县", "center": {"longitude": 117.534103, "latitude": 25.004425}}, {"name": "龙海市", "center": {"longitude": 117.818197, "latitude": 24.446706}}, {"name": "龙文区", "center": {"longitude": 117.709754, "latitude": 24.503113}}, {"name": "南靖县", "center": {"longitude": 117.35732, "latitude": 24.514654}}, {"name": "平和县", "center": {"longitude": 117.315017, "latitude": 24.363508}}, {"name": "芗城区", "center": {"longitude": 117.653968, "latitude": 24.510787}}, {"name": "云霄县", "center": {"longitude": 117.339573, "latitude": 23.957936}}, {"name": "漳浦县", "center": {"longitude": 117.613808, "latitude": 24.117102}}, {"name": "长泰县", "center": {"longitude": 117.759153, "latitude": 24.625449}}, {"name": "诏安县", "center": {"longitude": 117.175184, "latitude": 23.711579}}, {"name": "广东省", "center": {"longitude": 113.26641, "latitude": 23.132324}}, {"name": "中山市", "center": {"longitude": 113.39277, "latitude": 22.517585}}, {"name": "南头镇", "center": {"longitude": 113.291867, "latitude": 22.717679}}, {"name": "小榄镇", "center": {"longitude": 113.250897, "latitude": 22.672099}}, {"name": "神湾镇", "center": {"longitude": 113.363816, "latitude": 22.302496}}, {"name": "东凤镇", "center": {"longitude": 113.256963, "latitude": 22.702452}}, {"name": "南朗镇", "center": {"longitude": 113.530998, "latitude": 22.498612}}, {"name": "环城街道", "center": {"longitude": 113.352385, "latitude": 22.478059}}, {"name": "坦洲镇", "center": {"longitude": 113.468002, "latitude": 22.254504}}, {"name": "中山港街道", "center": {"longitude": 113.47457, "latitude": 22.560023}}, {"name": "南区街道", "center": {"longitude": 113.354416, "latitude": 22.485429}}, {"name": "五桂山街道", "center": {"longitude": 113.402421, "latitude": 22.446247}}, {"name": "石歧区街道", "center": {"longitude": 113.372237, "latitude": 22.520661}}, {"name": "西区街道", "center": {"longitude": 113.358988, "latitude": 22.520088}}, {"name": "东区街道", "center": {"longitude": 113.398577, "latitude": 22.513701}}, {"name": "三乡镇", "center": {"longitude": 113.441608, "latitude": 22.357768}}, {"name": "大涌镇", "center": {"longitude": 113.300876, "latitude": 22.46497}}, {"name": "黄圃镇", "center": {"longitude": 113.33915, "latitude": 22.710864}}, {"name": "石岐区街道", "center": {"longitude": 113.388358, "latitude": 22.536656}}, {"name": "沙溪镇", "center": {"longitude": 113.321321, "latitude": 22.508984}}, {"name": "东升镇", "center": {"longitude": 113.291662, "latitude": 22.62273}}, {"name": "阜沙镇", "center": {"longitude": 113.349872, "latitude": 22.667171}}, {"name": "民众镇", "center": {"longitude": 113.493839, "latitude": 22.621554}}, {"name": "横栏镇", "center": {"longitude": 113.249104, "latitude": 22.534847}}, {"name": "三角镇", "center": {"longitude": 113.418173, "latitude": 22.67658}}, {"name": "板芙镇", "center": {"longitude": 113.322644, "latitude": 22.416782}}, {"name": "港口镇", "center": {"longitude": 113.385893, "latitude": 22.585266}}, {"name": "古镇镇", "center": {"longitude": 113.190869, "latitude": 22.613406}}, {"name": "东沙群岛", "center": {"longitude": 116.887613, "latitude": 20.617825}}, {"name": "潮州市", "center": {"longitude": 116.622444, "latitude": 23.657262}}, {"name": "潮安区", "center": {"longitude": 116.678203, "latitude": 23.462613}}, {"name": "饶平县", "center": {"longitude": 117.0039, "latitude": 23.663824}}, {"name": "湘桥区", "center": {"longitude": 116.628627, "latitude": 23.674387}}, {"name": "东莞市", "center": {"longitude": 113.751799, "latitude": 23.020673}}, {"name": "东坑镇", "center": {"longitude": 113.933872, "latitude": 22.995838}}, {"name": "大岭山镇", "center": {"longitude": 113.842223, "latitude": 22.899965}}, {"name": "企石镇", "center": {"longitude": 114.022023, "latitude": 23.072874}}, {"name": "沙田镇", "center": {"longitude": 113.61818, "latitude": 22.919615}}, {"name": "道滘镇", "center": {"longitude": 113.675231, "latitude": 23.004366}}, {"name": "虎门镇", "center": {"longitude": 113.672553, "latitude": 22.814835}}, {"name": "望牛墩镇", "center": {"longitude": 113.656231, "latitude": 23.055334}}, {"name": "南城街道", "center": {"longitude": 113.743835, "latitude": 23.018534}}, {"name": "莞城街道", "center": {"longitude": 113.749234, "latitude": 23.038629}}, {"name": "东城街道", "center": {"longitude": 113.783327, "latitude": 23.028053}}, {"name": "万江街道", "center": {"longitude": 113.738542, "latitude": 23.047104}}, {"name": "石排镇", "center": {"longitude": 113.9403, "latitude": 23.090292}}, {"name": "厚街镇", "center": {"longitude": 113.67114, "latitude": 22.936585}}, {"name": "长安镇", "center": {"longitude": 113.802516, "latitude": 22.814768}}, {"name": "石碣镇", "center": {"longitude": 113.813068, "latitude": 23.099651}}, {"name": "大朗镇", "center": {"longitude": 113.943978, "latitude": 22.940016}}, {"name": "横沥镇", "center": {"longitude": 113.965588, "latitude": 23.018472}}, {"name": "樟木头镇", "center": {"longitude": 114.083278, "latitude": 22.914909}}, {"name": "清溪镇", "center": {"longitude": 114.164185, "latitude": 22.843847}}, {"name": "麻涌镇", "center": {"longitude": 113.581134, "latitude": 23.051137}}, {"name": "茶山镇", "center": {"longitude": 113.869636, "latitude": 23.076755}}, {"name": "凤岗镇", "center": {"longitude": 114.136944, "latitude": 22.74695}}, {"name": "高埗镇", "center": {"longitude": 113.745951, "latitude": 23.090824}}, {"name": "中堂镇", "center": {"longitude": 113.656917, "latitude": 23.092609}}, {"name": "桥头镇", "center": {"longitude": 114.10316, "latitude": 23.024132}}, {"name": "谢岗镇", "center": {"longitude": 114.148739, "latitude": 22.961616}}, {"name": "黄江镇", "center": {"longitude": 114.003561, "latitude": 22.915278}}, {"name": "塘厦镇", "center": {"longitude": 114.072575, "latitude": 22.806965}}, {"name": "寮步镇", "center": {"longitude": 113.874871, "latitude": 22.997358}}, {"name": "洪梅镇", "center": {"longitude": 113.608903, "latitude": 22.994717}}, {"name": "常平镇", "center": {"longitude": 113.993116, "latitude": 22.974855}}, {"name": "石龙镇", "center": {"longitude": 113.874378, "latitude": 23.10591}}, {"name": "佛山市", "center": {"longitude": 113.121435, "latitude": 23.021478}}, {"name": "禅城区", "center": {"longitude": 113.122421, "latitude": 23.009551}}, {"name": "高明区", "center": {"longitude": 112.892585, "latitude": 22.900139}}, {"name": "南海区", "center": {"longitude": 113.143441, "latitude": 23.028956}}, {"name": "三水区", "center": {"longitude": 112.896685, "latitude": 23.155931}}, {"name": "顺德区", "center": {"longitude": 113.293359, "latitude": 22.80524}}, {"name": "广州市", "center": {"longitude": 113.264385, "latitude": 23.12911}}, {"name": "白云区", "center": {"longitude": 113.273238, "latitude": 23.157367}}, {"name": "从化区", "center": {"longitude": 113.586679, "latitude": 23.548748}}, {"name": "番禺区", "center": {"longitude": 113.384152, "latitude": 22.937556}}, {"name": "海珠区", "center": {"longitude": 113.317443, "latitude": 23.083788}}, {"name": "花都区", "center": {"longitude": 113.220463, "latitude": 23.403744}}, {"name": "黄埔区", "center": {"longitude": 113.480541, "latitude": 23.181706}}, {"name": "荔湾区", "center": {"longitude": 113.244258, "latitude": 23.125863}}, {"name": "南沙区", "center": {"longitude": 113.525165, "latitude": 22.801624}}, {"name": "天河区", "center": {"longitude": 113.361575, "latitude": 23.124807}}, {"name": "越秀区", "center": {"longitude": 113.266835, "latitude": 23.128537}}, {"name": "增城区", "center": {"longitude": 113.810627, "latitude": 23.261465}}, {"name": "河源市", "center": {"longitude": 114.700961, "latitude": 23.743686}}, {"name": "东源县", "center": {"longitude": 114.746344, "latitude": 23.788189}}, {"name": "和平县", "center": {"longitude": 114.938684, "latitude": 24.44218}}, {"name": "连平县", "center": {"longitude": 114.488556, "latitude": 24.369583}}, {"name": "龙川县", "center": {"longitude": 115.259871, "latitude": 24.100066}}, {"name": "源城区", "center": {"longitude": 114.702517, "latitude": 23.733969}}, {"name": "紫金县", "center": {"longitude": 115.184107, "latitude": 23.635745}}, {"name": "惠州市", "center": {"longitude": 114.415612, "latitude": 23.112381}}, {"name": "博罗县", "center": {"longitude": 114.289528, "latitude": 23.172771}}, {"name": "惠城区", "center": {"longitude": 114.382474, "latitude": 23.084137}}, {"name": "惠东县", "center": {"longitude": 114.719988, "latitude": 22.985014}}, {"name": "惠阳区", "center": {"longitude": 114.456176, "latitude": 22.789788}}, {"name": "龙门县", "center": {"longitude": 114.254863, "latitude": 23.727737}}, {"name": "江门市", "center": {"longitude": 113.081542, "latitude": 22.57899}}, {"name": "恩平市", "center": {"longitude": 112.305145, "latitude": 22.183206}}, {"name": "鹤山市", "center": {"longitude": 112.964252, "latitude": 22.76545}}, {"name": "江海区", "center": {"longitude": 113.111612, "latitude": 22.560473}}, {"name": "开平市", "center": {"longitude": 112.698545, "latitude": 22.376395}}, {"name": "蓬江区", "center": {"longitude": 113.078521, "latitude": 22.595149}}, {"name": "台山市", "center": {"longitude": 112.794065, "latitude": 22.251924}}, {"name": "新会区", "center": {"longitude": 113.034187, "latitude": 22.4583}}, {"name": "揭阳市", "center": {"longitude": 116.372708, "latitude": 23.549701}}, {"name": "惠来县", "center": {"longitude": 116.29515, "latitude": 23.033266}}, {"name": "揭东区", "center": {"longitude": 116.412015, "latitude": 23.566126}}, {"name": "揭西县", "center": {"longitude": 115.841837, "latitude": 23.431294}}, {"name": "普宁市", "center": {"longitude": 116.165777, "latitude": 23.297493}}, {"name": "榕城区", "center": {"longitude": 116.367012, "latitude": 23.525382}}, {"name": "茂名市", "center": {"longitude": 110.925439, "latitude": 21.662991}}, {"name": "电白区", "center": {"longitude": 111.013556, "latitude": 21.514163}}, {"name": "高州市", "center": {"longitude": 110.853299, "latitude": 21.918203}}, {"name": "化州市", "center": {"longitude": 110.639565, "latitude": 21.66463}}, {"name": "茂南区", "center": {"longitude": 110.918026, "latitude": 21.641337}}, {"name": "信宜市", "center": {"longitude": 110.947043, "latitude": 22.354385}}, {"name": "梅州市", "center": {"longitude": 116.122523, "latitude": 24.288578}}, {"name": "大埔县", "center": {"longitude": 116.695195, "latitude": 24.347782}}, {"name": "丰顺县", "center": {"longitude": 116.181691, "latitude": 23.739343}}, {"name": "蕉岭县", "center": {"longitude": 116.171355, "latitude": 24.658699}}, {"name": "梅江区", "center": {"longitude": 116.116695, "latitude": 24.31049}}, {"name": "梅县区", "center": {"longitude": 116.081656, "latitude": 24.265926}}, {"name": "平远县", "center": {"longitude": 115.891638, "latitude": 24.567261}}, {"name": "五华县", "center": {"longitude": 115.775788, "latitude": 23.932409}}, {"name": "兴宁市", "center": {"longitude": 115.731167, "latitude": 24.136708}}, {"name": "清远市", "center": {"longitude": 113.056042, "latitude": 23.681774}}, {"name": "佛冈县", "center": {"longitude": 113.531607, "latitude": 23.879192}}, {"name": "连州市", "center": {"longitude": 112.377361, "latitude": 24.780966}}, {"name": "连南瑶族自治县", "center": {"longitude": 112.287012, "latitude": 24.726017}}, {"name": "连山壮族瑶族自治县", "center": {"longitude": 112.093617, "latitude": 24.570491}}, {"name": "清新区", "center": {"longitude": 113.017747, "latitude": 23.734677}}, {"name": "清城区", "center": {"longitude": 113.062692, "latitude": 23.697899}}, {"name": "阳山县", "center": {"longitude": 112.641363, "latitude": 24.465359}}, {"name": "英德市", "center": {"longitude": 113.401701, "latitude": 24.206986}}, {"name": "汕头市", "center": {"longitude": 116.681972, "latitude": 23.354091}}, {"name": "潮南区", "center": {"longitude": 116.439178, "latitude": 23.23865}}, {"name": "澄海区", "center": {"longitude": 116.755992, "latitude": 23.466709}}, {"name": "潮阳区", "center": {"longitude": 116.601509, "latitude": 23.265356}}, {"name": "濠江区", "center": {"longitude": 116.726973, "latitude": 23.286079}}, {"name": "金平区", "center": {"longitude": 116.70345, "latitude": 23.365556}}, {"name": "龙湖区", "center": {"longitude": 116.716446, "latitude": 23.372254}}, {"name": "南澳县", "center": {"longitude": 117.023374, "latitude": 23.421724}}, {"name": "汕尾市", "center": {"longitude": 115.375431, "latitude": 22.78705}}, {"name": "城区", "center": {"longitude": 115.365058, "latitude": 22.779207}}, {"name": "海丰县", "center": {"longitude": 115.323436, "latitude": 22.966585}}, {"name": "陆丰市", "center": {"longitude": 115.652151, "latitude": 22.919228}}, {"name": "陆河县", "center": {"longitude": 115.660143, "latitude": 23.301616}}, {"name": "韶关市", "center": {"longitude": 113.59762, "latitude": 24.810879}}, {"name": "乐昌市", "center": {"longitude": 113.347545, "latitude": 25.130602}}, {"name": "南雄市", "center": {"longitude": 114.311982, "latitude": 25.117753}}, {"name": "曲江区", "center": {"longitude": 113.604535, "latitude": 24.682501}}, {"name": "仁化县", "center": {"longitude": 113.749027, "latitude": 25.085621}}, {"name": "乳源瑶族自治县", "center": {"longitude": 113.275883, "latitude": 24.776078}}, {"name": "始兴县", "center": {"longitude": 114.061789, "latitude": 24.952976}}, {"name": "翁源县", "center": {"longitude": 114.130342, "latitude": 24.350346}}, {"name": "武江区", "center": {"longitude": 113.587756, "latitude": 24.792926}}, {"name": "新丰县", "center": {"longitude": 114.206867, "latitude": 24.05976}}, {"name": "浈江区", "center": {"longitude": 113.611098, "latitude": 24.804381}}, {"name": "深圳市", "center": {"longitude": 114.057939, "latitude": 22.543527}}, {"name": "宝安区", "center": {"longitude": 113.883802, "latitude": 22.554996}}, {"name": "福田区", "center": {"longitude": 114.055072, "latitude": 22.521521}}, {"name": "龙岗区", "center": {"longitude": 114.246899, "latitude": 22.720974}}, {"name": "龙华区", "center": {"longitude": 114.045422, "latitude": 22.696667}}, {"name": "罗湖区", "center": {"longitude": 114.131459, "latitude": 22.548389}}, {"name": "南山区", "center": {"longitude": 113.930413, "latitude": 22.533287}}, {"name": "坪山区", "center": {"longitude": 114.350584, "latitude": 22.708881}}, {"name": "盐田区", "center": {"longitude": 114.236739, "latitude": 22.557001}}, {"name": "阳江市", "center": {"longitude": 111.982589, "latitude": 21.857887}}, {"name": "江城区", "center": {"longitude": 111.955058, "latitude": 21.861786}}, {"name": "阳西县", "center": {"longitude": 111.61766, "latitude": 21.752771}}, {"name": "阳东区", "center": {"longitude": 112.006363, "latitude": 21.868337}}, {"name": "阳春市", "center": {"longitude": 111.791587, "latitude": 22.17041}}, {"name": "云浮市", "center": {"longitude": 112.044491, "latitude": 22.915094}}, {"name": "罗定市", "center": {"longitude": 111.569892, "latitude": 22.768285}}, {"name": "新兴县", "center": {"longitude": 112.225334, "latitude": 22.69569}}, {"name": "云安区", "center": {"longitude": 112.003208, "latitude": 23.071019}}, {"name": "郁南县", "center": {"longitude": 111.535285, "latitude": 23.23456}}, {"name": "云城区", "center": {"longitude": 112.043945, "latitude": 22.92815}}, {"name": "湛江市", "center": {"longitude": 110.356639, "latitude": 21.270145}}, {"name": "赤坎区", "center": {"longitude": 110.365899, "latitude": 21.266119}}, {"name": "雷州市", "center": {"longitude": 110.096586, "latitude": 20.914178}}, {"name": "廉江市", "center": {"longitude": 110.286208, "latitude": 21.6097}}, {"name": "麻章区", "center": {"longitude": 110.334387, "latitude": 21.263442}}, {"name": "坡头区", "center": {"longitude": 110.455332, "latitude": 21.244721}}, {"name": "遂溪县", "center": {"longitude": 110.250123, "latitude": 21.377246}}, {"name": "吴川市", "center": {"longitude": 110.778411, "latitude": 21.441808}}, {"name": "霞山区", "center": {"longitude": 110.397656, "latitude": 21.192457}}, {"name": "徐闻县", "center": {"longitude": 110.176749, "latitude": 20.325489}}, {"name": "肇庆市", "center": {"longitude": 112.465091, "latitude": 23.047191}}, {"name": "德庆县", "center": {"longitude": 111.785937, "latitude": 23.143722}}, {"name": "鼎湖区", "center": {"longitude": 112.567588, "latitude": 23.158447}}, {"name": "端州区", "center": {"longitude": 112.484848, "latitude": 23.052101}}, {"name": "封开县", "center": {"longitude": 111.512343, "latitude": 23.424033}}, {"name": "高要区", "center": {"longitude": 112.457981, "latitude": 23.025305}}, {"name": "广宁县", "center": {"longitude": 112.44069, "latitude": 23.634675}}, {"name": "怀集县", "center": {"longitude": 112.167742, "latitude": 23.92035}}, {"name": "四会市", "center": {"longitude": 112.734103, "latitude": 23.327001}}, {"name": "珠海市", "center": {"longitude": 113.576677, "latitude": 22.270978}}, {"name": "斗门区", "center": {"longitude": 113.296467, "latitude": 22.2092}}, {"name": "金湾区", "center": {"longitude": 113.362656, "latitude": 22.147471}}, {"name": "香洲区", "center": {"longitude": 113.543784, "latitude": 22.265811}}, {"name": "广西壮族自治区", "center": {"longitude": 108.327546, "latitude": 22.815478}}, {"name": "北海市", "center": {"longitude": 109.120161, "latitude": 21.481291}}, {"name": "海城区", "center": {"longitude": 109.117209, "latitude": 21.475004}}, {"name": "合浦县", "center": {"longitude": 109.207335, "latitude": 21.660935}}, {"name": "铁山港区", "center": {"longitude": 109.42158, "latitude": 21.529127}}, {"name": "银海区", "center": {"longitude": 109.139862, "latitude": 21.449308}}, {"name": "百色市", "center": {"longitude": 106.618202, "latitude": 23.90233}}, {"name": "德保县", "center": {"longitude": 106.615373, "latitude": 23.32345}}, {"name": "靖西市", "center": {"longitude": 106.417805, "latitude": 23.134117}}, {"name": "乐业县", "center": {"longitude": 106.556519, "latitude": 24.776827}}, {"name": "凌云县", "center": {"longitude": 106.56131, "latitude": 24.347557}}, {"name": "隆林各族自治县", "center": {"longitude": 105.34404, "latitude": 24.770896}}, {"name": "那坡县", "center": {"longitude": 105.83253, "latitude": 23.387441}}, {"name": "平果县", "center": {"longitude": 107.589809, "latitude": 23.329376}}, {"name": "田林县", "center": {"longitude": 106.228538, "latitude": 24.294487}}, {"name": "田东县", "center": {"longitude": 107.12608, "latitude": 23.597194}}, {"name": "田阳县", "center": {"longitude": 106.915496, "latitude": 23.735692}}, {"name": "西林县", "center": {"longitude": 105.093825, "latitude": 24.489823}}, {"name": "右江区", "center": {"longitude": 106.618225, "latitude": 23.90097}}, {"name": "崇左市", "center": {"longitude": 107.365094, "latitude": 22.377253}}, {"name": "大新县", "center": {"longitude": 107.200654, "latitude": 22.829287}}, {"name": "扶绥县", "center": {"longitude": 107.904186, "latitude": 22.635012}}, {"name": "江州区", "center": {"longitude": 107.353437, "latitude": 22.405325}}, {"name": "龙州县", "center": {"longitude": 106.854482, "latitude": 22.342778}}, {"name": "宁明县", "center": {"longitude": 107.076456, "latitude": 22.140192}}, {"name": "凭祥市", "center": {"longitude": 106.766293, "latitude": 22.094484}}, {"name": "天等县", "center": {"longitude": 107.143432, "latitude": 23.081394}}, {"name": "防城港市", "center": {"longitude": 108.353846, "latitude": 21.68686}}, {"name": "东兴市", "center": {"longitude": 107.971828, "latitude": 21.547821}}, {"name": "防城区", "center": {"longitude": 108.353499, "latitude": 21.769211}}, {"name": "港口区", "center": {"longitude": 108.380143, "latitude": 21.643383}}, {"name": "上思县", "center": {"longitude": 107.983627, "latitude": 22.153671}}, {"name": "桂林市", "center": {"longitude": 110.179953, "latitude": 25.234479}}, {"name": "叠彩区", "center": {"longitude": 110.301723, "latitude": 25.314}}, {"name": "灌阳县", "center": {"longitude": 111.160851, "latitude": 25.489383}}, {"name": "恭城瑶族自治县", "center": {"longitude": 110.828409, "latitude": 24.831682}}, {"name": "荔浦县", "center": {"longitude": 110.395104, "latitude": 24.488342}}, {"name": "临桂区", "center": {"longitude": 110.212463, "latitude": 25.238628}}, {"name": "灵川县", "center": {"longitude": 110.319897, "latitude": 25.394781}}, {"name": "龙胜各族自治县", "center": {"longitude": 110.011238, "latitude": 25.797931}}, {"name": "平乐县", "center": {"longitude": 110.643305, "latitude": 24.633362}}, {"name": "七星区", "center": {"longitude": 110.317826, "latitude": 25.252701}}, {"name": "全州县", "center": {"longitude": 111.072946, "latitude": 25.928387}}, {"name": "象山区", "center": {"longitude": 110.281082, "latitude": 25.261686}}, {"name": "兴安县", "center": {"longitude": 110.67167, "latitude": 25.611704}}, {"name": "秀峰区", "center": {"longitude": 110.264183, "latitude": 25.273625}}, {"name": "阳朔县", "center": {"longitude": 110.496593, "latitude": 24.77848}}, {"name": "雁山区", "center": {"longitude": 110.28669, "latitude": 25.101934}}, {"name": "永福县", "center": {"longitude": 109.983076, "latitude": 24.979855}}, {"name": "资源县", "center": {"longitude": 110.6527, "latitude": 26.042443}}, {"name": "贵港市", "center": {"longitude": 109.598926, "latitude": 23.11153}}, {"name": "港南区", "center": {"longitude": 109.599556, "latitude": 23.075573}}, {"name": "港北区", "center": {"longitude": 109.57224, "latitude": 23.11153}}, {"name": "桂平市", "center": {"longitude": 110.079379, "latitude": 23.394325}}, {"name": "平南县", "center": {"longitude": 110.392311, "latitude": 23.539264}}, {"name": "覃塘区", "center": {"longitude": 109.452662, "latitude": 23.127149}}, {"name": "河池市", "center": {"longitude": 108.085261, "latitude": 24.692931}}, {"name": "巴马瑶族自治县", "center": {"longitude": 107.258588, "latitude": 24.142298}}, {"name": "大化瑶族自治县", "center": {"longitude": 107.998149, "latitude": 23.736457}}, {"name": "东兰县", "center": {"longitude": 107.374293, "latitude": 24.510842}}, {"name": "都安瑶族自治县", "center": {"longitude": 108.105311, "latitude": 23.932675}}, {"name": "凤山县", "center": {"longitude": 107.04219, "latitude": 24.546876}}, {"name": "环江毛南族自治县", "center": {"longitude": 108.258028, "latitude": 24.825664}}, {"name": "金城江区", "center": {"longitude": 108.037276, "latitude": 24.689703}}, {"name": "罗城仫佬族自治县", "center": {"longitude": 108.904706, "latitude": 24.777411}}, {"name": "南丹县", "center": {"longitude": 107.541244, "latitude": 24.975631}}, {"name": "天峨县", "center": {"longitude": 107.173802, "latitude": 24.999108}}, {"name": "宜州区", "center": {"longitude": 108.636414, "latitude": 24.485214}}, {"name": "贺州市", "center": {"longitude": 111.566871, "latitude": 24.403528}}, {"name": "八步区", "center": {"longitude": 111.552095, "latitude": 24.411805}}, {"name": "富川瑶族自治县", "center": {"longitude": 111.27745, "latitude": 24.814443}}, {"name": "平桂区", "center": {"longitude": 111.479923, "latitude": 24.453845}}, {"name": "昭平县", "center": {"longitude": 110.811325, "latitude": 24.169385}}, {"name": "钟山县", "center": {"longitude": 111.303009, "latitude": 24.525957}}, {"name": "来宾市", "center": {"longitude": 109.221465, "latitude": 23.750306}}, {"name": "合山市", "center": {"longitude": 108.886082, "latitude": 23.806535}}, {"name": "金秀瑶族自治县", "center": {"longitude": 110.189462, "latitude": 24.130374}}, {"name": "武宣县", "center": {"longitude": 109.663206, "latitude": 23.59411}}, {"name": "忻城县", "center": {"longitude": 108.665666, "latitude": 24.066234}}, {"name": "象州县", "center": {"longitude": 109.705065, "latitude": 23.973793}}, {"name": "兴宾区", "center": {"longitude": 109.183333, "latitude": 23.72892}}, {"name": "柳州市", "center": {"longitude": 109.428608, "latitude": 24.326291}}, {"name": "城中区", "center": {"longitude": 109.4273, "latitude": 24.366}}, {"name": "柳城县", "center": {"longitude": 109.24473, "latitude": 24.651518}}, {"name": "柳北区", "center": {"longitude": 109.402049, "latitude": 24.362691}}, {"name": "柳江区", "center": {"longitude": 109.32638, "latitude": 24.254891}}, {"name": "柳南区", "center": {"longitude": 109.385518, "latitude": 24.336229}}, {"name": "鹿寨县", "center": {"longitude": 109.750638, "latitude": 24.472897}}, {"name": "融水苗族自治县", "center": {"longitude": 109.256334, "latitude": 25.065934}}, {"name": "融安县", "center": {"longitude": 109.397538, "latitude": 25.224549}}, {"name": "三江侗族自治县", "center": {"longitude": 109.607675, "latitude": 25.783198}}, {"name": "鱼峰区", "center": {"longitude": 109.452442, "latitude": 24.318516}}, {"name": "南宁市", "center": {"longitude": 108.366543, "latitude": 22.817002}}, {"name": "宾阳县", "center": {"longitude": 108.810326, "latitude": 23.217786}}, {"name": "横县", "center": {"longitude": 109.261384, "latitude": 22.679931}}, {"name": "江南区", "center": {"longitude": 108.273133, "latitude": 22.78136}}, {"name": "良庆区", "center": {"longitude": 108.39301, "latitude": 22.752997}}, {"name": "隆安县", "center": {"longitude": 107.696153, "latitude": 23.166028}}, {"name": "马山县", "center": {"longitude": 108.177019, "latitude": 23.708321}}, {"name": "青秀区", "center": {"longitude": 108.494024, "latitude": 22.785879}}, {"name": "上林县", "center": {"longitude": 108.602846, "latitude": 23.431908}}, {"name": "武鸣区", "center": {"longitude": 108.27467, "latitude": 23.158595}}, {"name": "西乡塘区", "center": {"longitude": 108.313494, "latitude": 22.833928}}, {"name": "兴宁区", "center": {"longitude": 108.368871, "latitude": 22.854021}}, {"name": "邕宁区", "center": {"longitude": 108.487368, "latitude": 22.75839}}, {"name": "钦州市", "center": {"longitude": 108.654146, "latitude": 21.979933}}, {"name": "灵山县", "center": {"longitude": 109.291006, "latitude": 22.416536}}, {"name": "浦北县", "center": {"longitude": 109.556953, "latitude": 22.271651}}, {"name": "钦北区", "center": {"longitude": 108.44911, "latitude": 22.132761}}, {"name": "钦南区", "center": {"longitude": 108.657209, "latitude": 21.938859}}, {"name": "梧州市", "center": {"longitude": 111.279115, "latitude": 23.476962}}, {"name": "苍梧县", "center": {"longitude": 111.544007, "latitude": 23.845097}}, {"name": "岑溪市", "center": {"longitude": 110.994913, "latitude": 22.91835}}, {"name": "龙圩区", "center": {"longitude": 111.246606, "latitude": 23.404772}}, {"name": "蒙山县", "center": {"longitude": 110.525003, "latitude": 24.19357}}, {"name": "藤县", "center": {"longitude": 110.914849, "latitude": 23.374983}}, {"name": "万秀区", "center": {"longitude": 111.320518, "latitude": 23.472991}}, {"name": "长洲区", "center": {"longitude": 111.274673, "latitude": 23.485944}}, {"name": "玉林市", "center": {"longitude": 110.18122, "latitude": 22.654032}}, {"name": "博白县", "center": {"longitude": 109.975985, "latitude": 22.273048}}, {"name": "北流市", "center": {"longitude": 110.354214, "latitude": 22.70831}}, {"name": "福绵区", "center": {"longitude": 110.059439, "latitude": 22.585556}}, {"name": "陆川县", "center": {"longitude": 110.264052, "latitude": 22.321048}}, {"name": "容县", "center": {"longitude": 110.558074, "latitude": 22.857839}}, {"name": "兴业县", "center": {"longitude": 109.875304, "latitude": 22.736421}}, {"name": "玉州区", "center": {"longitude": 110.151153, "latitude": 22.628087}}, {"name": "海南省", "center": {"longitude": 110.349228, "latitude": 20.017377}}, {"name": "儋州市", "center": {"longitude": 109.580811, "latitude": 19.521134}}, {"name": "海头镇", "center": {"longitude": 108.953392, "latitude": 19.503315}}, {"name": "白马井镇", "center": {"longitude": 109.218734, "latitude": 19.696407}}, {"name": "新英湾街道", "center": {"longitude": 109.2224, "latitude": 19.745499}}, {"name": "那大街道", "center": {"longitude": 109.573403, "latitude": 19.511799}}, {"name": "木棠镇", "center": {"longitude": 109.35023, "latitude": 19.80393}}, {"name": "新州镇", "center": {"longitude": 109.316166, "latitude": 19.71431}}, {"name": "中和镇", "center": {"longitude": 109.349583, "latitude": 19.743857}}, {"name": "峨蔓镇", "center": {"longitude": 109.266778, "latitude": 19.854773}}, {"name": "排浦镇", "center": {"longitude": 109.163254, "latitude": 19.638809}}, {"name": "王五镇", "center": {"longitude": 109.29572, "latitude": 19.653711}}, {"name": "光村镇", "center": {"longitude": 109.48132, "latitude": 19.818101}}, {"name": "和庆镇", "center": {"longitude": 109.640854, "latitude": 19.525401}}, {"name": "大成镇", "center": {"longitude": 109.399661, "latitude": 19.507964}}, {"name": "兰洋镇", "center": {"longitude": 109.664393, "latitude": 19.460398}}, {"name": "雅星镇", "center": {"longitude": 109.269115, "latitude": 19.444076}}, {"name": "三都镇", "center": {"longitude": 109.21922, "latitude": 19.786922}}, {"name": "东成镇", "center": {"longitude": 109.461375, "latitude": 19.703706}}, {"name": "那大镇", "center": {"longitude": 109.546409, "latitude": 19.514878}}, {"name": "兰训乡", "center": {"longitude": 109.361149, "latitude": 19.859648}}, {"name": "海口市", "center": {"longitude": 110.198286, "latitude": 20.044412}}, {"name": "龙华区", "center": {"longitude": 110.328492, "latitude": 20.031006}}, {"name": "美兰区", "center": {"longitude": 110.366358, "latitude": 20.029083}}, {"name": "琼山区", "center": {"longitude": 110.353972, "latitude": 20.003169}}, {"name": "秀英区", "center": {"longitude": 110.293603, "latitude": 20.007494}}, {"name": "三沙市", "center": {"longitude": 112.338695, "latitude": 16.831839}}, {"name": "南沙群岛", "center": {"longitude": 116.749997, "latitude": 11.471888}}, {"name": "西沙群岛", "center": {"longitude": 111.792944, "latitude": 16.204546}}, {"name": "中沙群岛的岛礁及其海域", "center": {"longitude": 117.740071, "latitude": 15.112855}}, {"name": "三亚市", "center": {"longitude": 109.511772, "latitude": 18.253135}}, {"name": "海棠区", "center": {"longitude": 109.752569, "latitude": 18.400106}}, {"name": "吉阳区", "center": {"longitude": 109.578336, "latitude": 18.281406}}, {"name": "天涯区", "center": {"longitude": 109.452378, "latitude": 18.298156}}, {"name": "崖州区", "center": {"longitude": 109.171841, "latitude": 18.357291}}, {"name": "白沙黎族自治县", "center": {"longitude": 109.451484, "latitude": 19.224823}}, {"name": "细水乡", "center": {"longitude": 109.568501, "latitude": 19.206414}}, {"name": "阜龙乡", "center": {"longitude": 109.460782, "latitude": 19.32259}}, {"name": "邦溪镇", "center": {"longitude": 109.103544, "latitude": 19.369531}}, {"name": "南开乡", "center": {"longitude": 109.41468, "latitude": 19.07781}}, {"name": "七坊镇", "center": {"longitude": 109.24007, "latitude": 19.29558}}, {"name": "金波乡", "center": {"longitude": 109.178467, "latitude": 19.236611}}, {"name": "牙叉镇", "center": {"longitude": 109.445359, "latitude": 19.212209}}, {"name": "青松乡", "center": {"longitude": 109.270939, "latitude": 19.155189}}, {"name": "打安镇", "center": {"longitude": 109.373668, "latitude": 19.283887}}, {"name": "荣邦乡", "center": {"longitude": 109.170727, "latitude": 19.41395}}, {"name": "元门乡", "center": {"longitude": 109.486456, "latitude": 19.158071}}, {"name": "保亭黎族苗族自治县", "center": {"longitude": 109.70259, "latitude": 18.63913}}, {"name": "毛岸镇", "center": {"longitude": 109.581045, "latitude": 18.683945}}, {"name": "三道镇", "center": {"longitude": 109.668672, "latitude": 18.464576}}, {"name": "保城镇", "center": {"longitude": 109.703534, "latitude": 18.641565}}, {"name": "六弓乡", "center": {"longitude": 109.78506, "latitude": 18.53984}}, {"name": "什玲镇", "center": {"longitude": 109.78174, "latitude": 18.663921}}, {"name": "响水镇", "center": {"longitude": 109.61628, "latitude": 18.592227}}, {"name": "毛感乡", "center": {"longitude": 109.50901, "latitude": 18.613029}}, {"name": "新政镇", "center": {"longitude": 109.628914, "latitude": 18.541645}}, {"name": "南林乡", "center": {"longitude": 109.617455, "latitude": 18.405241}}, {"name": "加茂镇", "center": {"longitude": 109.707284, "latitude": 18.55223}}, {"name": "昌江黎族自治县", "center": {"longitude": 109.055739, "latitude": 19.298184}}, {"name": "石碌镇", "center": {"longitude": 109.055809, "latitude": 19.27755}}, {"name": "乌烈镇", "center": {"longitude": 108.792324, "latitude": 19.288577}}, {"name": "七叉镇", "center": {"longitude": 109.05128, "latitude": 19.11481}}, {"name": "海尾镇", "center": {"longitude": 108.8183, "latitude": 19.422}}, {"name": "叉河镇", "center": {"longitude": 108.957345, "latitude": 19.238934}}, {"name": "昌化镇", "center": {"longitude": 108.685071, "latitude": 19.329235}}, {"name": "十月田镇", "center": {"longitude": 108.952224, "latitude": 19.328109}}, {"name": "王下乡", "center": {"longitude": 109.150473, "latitude": 19.003399}}, {"name": "澄迈县", "center": {"longitude": 110.006754, "latitude": 19.738521}}, {"name": "加乐镇", "center": {"longitude": 110.00106, "latitude": 19.584999}}, {"name": "福山镇", "center": {"longitude": 109.92986, "latitude": 19.83004}}, {"name": "瑞溪镇", "center": {"longitude": 110.12908, "latitude": 19.73183}}, {"name": "文儒镇", "center": {"longitude": 110.053169, "latitude": 19.53708}}, {"name": "仁兴镇", "center": {"longitude": 109.88194, "latitude": 19.492539}}, {"name": "永发镇", "center": {"longitude": 110.19532, "latitude": 19.747359}}, {"name": "大丰镇", "center": {"longitude": 110.038147, "latitude": 19.855536}}, {"name": "桥头镇", "center": {"longitude": 109.933531, "latitude": 19.954138}}, {"name": "中兴镇", "center": {"longitude": 109.861281, "latitude": 19.564772}}, {"name": "老城镇", "center": {"longitude": 110.126498, "latitude": 19.953144}}, {"name": "金江镇", "center": {"longitude": 110.010187, "latitude": 19.736764}}, {"name": "定安县", "center": {"longitude": 110.359339, "latitude": 19.681404}}, {"name": "翰林镇", "center": {"longitude": 110.26473, "latitude": 19.333758}}, {"name": "龙河镇", "center": {"longitude": 110.219091, "latitude": 19.381868}}, {"name": "黄竹镇", "center": {"longitude": 110.446721, "latitude": 19.472782}}, {"name": "龙门镇", "center": {"longitude": 110.328024, "latitude": 19.43916}}, {"name": "定城镇", "center": {"longitude": 110.368432, "latitude": 19.680292}}, {"name": "富文镇", "center": {"longitude": 110.26279, "latitude": 19.551585}}, {"name": "龙州乡", "center": {"longitude": 110.266105, "latitude": 19.663599}}, {"name": "龙湖镇", "center": {"longitude": 110.401161, "latitude": 19.573221}}, {"name": "居丁镇", "center": {"longitude": 110.404932, "latitude": 19.574772}}, {"name": "雷鸣镇", "center": {"longitude": 110.326015, "latitude": 19.553655}}, {"name": "岭口镇", "center": {"longitude": 110.308233, "latitude": 19.342639}}, {"name": "新竹镇", "center": {"longitude": 110.208962, "latitude": 19.617783}}, {"name": "东方市", "center": {"longitude": 108.651815, "latitude": 19.095351}}, {"name": "江边乡", "center": {"longitude": 108.976837, "latitude": 18.894428}}, {"name": "新龙镇", "center": {"longitude": 108.684538, "latitude": 18.952023}}, {"name": "四更镇", "center": {"longitude": 108.682117, "latitude": 19.225616}}, {"name": "板桥镇", "center": {"longitude": 108.688613, "latitude": 18.794859}}, {"name": "感城镇", "center": {"longitude": 108.64791, "latitude": 18.84991}}, {"name": "大田镇", "center": {"longitude": 108.874903, "latitude": 19.16498}}, {"name": "天安乡", "center": {"longitude": 108.912763, "latitude": 19.017418}}, {"name": "罗带乡", "center": {"longitude": 108.674143, "latitude": 19.059986}}, {"name": "三家镇", "center": {"longitude": 108.758458, "latitude": 19.241239}}, {"name": "东河镇", "center": {"longitude": 108.93808, "latitude": 19.048051}}, {"name": "八所镇", "center": {"longitude": 108.670497, "latitude": 19.091445}}, {"name": "乐东黎族自治县", "center": {"longitude": 109.173054, "latitude": 18.750259}}, {"name": "大安镇", "center": {"longitude": 109.214756, "latitude": 18.691329}}, {"name": "莺歌海镇", "center": {"longitude": 108.697349, "latitude": 18.510154}}, {"name": "黄流镇", "center": {"longitude": 108.794872, "latitude": 18.506684}}, {"name": "万冲镇", "center": {"longitude": 109.32287, "latitude": 18.844711}}, {"name": "志仲镇", "center": {"longitude": 109.265117, "latitude": 18.629241}}, {"name": "九所镇", "center": {"longitude": 108.953913, "latitude": 18.453504}}, {"name": "利国镇", "center": {"longitude": 108.897225, "latitude": 18.472095}}, {"name": "佛罗镇", "center": {"longitude": 108.736344, "latitude": 18.578636}}, {"name": "抱由镇", "center": {"longitude": 109.179533, "latitude": 18.74478}}, {"name": "尖峰镇", "center": {"longitude": 108.792488, "latitude": 18.690415}}, {"name": "冲坡镇", "center": {"longitude": 108.881852, "latitude": 18.473897}}, {"name": "千家镇", "center": {"longitude": 109.086133, "latitude": 18.565577}}, {"name": "临高县", "center": {"longitude": 109.690508, "latitude": 19.912025}}, {"name": "东英镇", "center": {"longitude": 109.648634, "latitude": 19.959022}}, {"name": "皇桐镇", "center": {"longitude": 109.849709, "latitude": 19.832893}}, {"name": "南宝镇", "center": {"longitude": 109.599545, "latitude": 19.680461}}, {"name": "和舍镇", "center": {"longitude": 109.727565, "latitude": 19.596205}}, {"name": "多文镇", "center": {"longitude": 109.771058, "latitude": 19.773837}}, {"name": "临城镇", "center": {"longitude": 109.696445, "latitude": 19.896521}}, {"name": "博厚镇", "center": {"longitude": 109.745761, "latitude": 19.883726}}, {"name": "波莲镇", "center": {"longitude": 109.648489, "latitude": 19.868223}}, {"name": "新盈镇", "center": {"longitude": 109.536349, "latitude": 19.89513}}, {"name": "调楼镇", "center": {"longitude": 109.546479, "latitude": 19.928661}}, {"name": "加来镇", "center": {"longitude": 109.699231, "latitude": 19.709883}}, {"name": "陵水黎族自治县", "center": {"longitude": 110.037503, "latitude": 18.506048}}, {"name": "光坡镇", "center": {"longitude": 110.048782, "latitude": 18.54339}}, {"name": "大里乡", "center": {"longitude": 109.95142, "latitude": 18.750483}}, {"name": "英州镇", "center": {"longitude": 109.858895, "latitude": 18.427366}}, {"name": "三才镇", "center": {"longitude": 110.003299, "latitude": 18.474578}}, {"name": "本号镇", "center": {"longitude": 109.96248, "latitude": 18.608901}}, {"name": "群英乡", "center": {"longitude": 109.87883, "latitude": 18.58299}}, {"name": "隆广镇", "center": {"longitude": 109.89942, "latitude": 18.50198}}, {"name": "提蒙乡", "center": {"longitude": 110.013034, "latitude": 18.564805}}, {"name": "椰林镇", "center": {"longitude": 110.036325, "latitude": 18.506138}}, {"name": "新村镇", "center": {"longitude": 109.971328, "latitude": 18.412445}}, {"name": "黎安镇", "center": {"longitude": 110.069641, "latitude": 18.437315}}, {"name": "文罗镇", "center": {"longitude": 109.957227, "latitude": 18.515697}}, {"name": "琼海市", "center": {"longitude": 110.474497, "latitude": 19.259134}}, {"name": "博鳌镇", "center": {"longitude": 110.586606, "latitude": 19.159714}}, {"name": "石壁镇", "center": {"longitude": 110.308524, "latitude": 19.163306}}, {"name": "会山镇", "center": {"longitude": 110.269379, "latitude": 19.067147}}, {"name": "大路镇", "center": {"longitude": 110.476468, "latitude": 19.381023}}, {"name": "万泉镇", "center": {"longitude": 110.409657, "latitude": 19.243071}}, {"name": "潭门镇", "center": {"longitude": 110.61694, "latitude": 19.24169}}, {"name": "加积街道", "center": {"longitude": 110.465066, "latitude": 19.241859}}, {"name": "中原镇", "center": {"longitude": 110.468478, "latitude": 19.151912}}, {"name": "阳江镇", "center": {"longitude": 110.349228, "latitude": 19.099221}}, {"name": "朝阳乡", "center": {"longitude": 110.530134, "latitude": 19.152241}}, {"name": "长坡镇", "center": {"longitude": 110.606781, "latitude": 19.33564}}, {"name": "塔洋镇", "center": {"longitude": 110.508274, "latitude": 19.288196}}, {"name": "嘉积镇", "center": {"longitude": 110.485992, "latitude": 19.242966}}, {"name": "龙江镇", "center": {"longitude": 110.324964, "latitude": 19.146787}}, {"name": "琼中黎族苗族自治县", "center": {"longitude": 109.838389, "latitude": 19.033369}}, {"name": "中平镇", "center": {"longitude": 110.06023, "latitude": 19.061179}}, {"name": "和平镇", "center": {"longitude": 110.029212, "latitude": 18.897423}}, {"name": "什运乡", "center": {"longitude": 109.607969, "latitude": 18.992017}}, {"name": "营根镇", "center": {"longitude": 109.83431, "latitude": 19.032547}}, {"name": "红毛镇", "center": {"longitude": 109.689932, "latitude": 19.030684}}, {"name": "吊罗山乡", "center": {"longitude": 109.878143, "latitude": 18.792633}}, {"name": "上安乡", "center": {"longitude": 109.837283, "latitude": 18.876829}}, {"name": "湾岭镇", "center": {"longitude": 109.900496, "latitude": 19.141306}}, {"name": "黎母山镇", "center": {"longitude": 109.78685, "latitude": 19.267691}}, {"name": "屯昌县", "center": {"longitude": 110.103415, "latitude": 19.351765}}, {"name": "南吕镇", "center": {"longitude": 110.08253, "latitude": 19.2507}}, {"name": "西昌镇", "center": {"longitude": 110.0455, "latitude": 19.433661}}, {"name": "新兴镇", "center": {"longitude": 110.182802, "latitude": 19.506743}}, {"name": "乌坡镇", "center": {"longitude": 110.075965, "latitude": 19.180023}}, {"name": "枫木镇", "center": {"longitude": 110.019489, "latitude": 19.214452}}, {"name": "坡心镇", "center": {"longitude": 110.089942, "latitude": 19.307033}}, {"name": "屯城镇", "center": {"longitude": 110.104886, "latitude": 19.371561}}, {"name": "南坤镇", "center": {"longitude": 109.948275, "latitude": 19.318366}}, {"name": "万宁市", "center": {"longitude": 110.391073, "latitude": 18.795143}}, {"name": "龙滚镇", "center": {"longitude": 110.519209, "latitude": 19.058665}}, {"name": "礼纪镇", "center": {"longitude": 110.317655, "latitude": 18.75043}}, {"name": "后安镇", "center": {"longitude": 110.443872, "latitude": 18.867778}}, {"name": "大茂镇", "center": {"longitude": 110.396556, "latitude": 18.849039}}, {"name": "北大镇", "center": {"longitude": 110.336053, "latitude": 18.920125}}, {"name": "万城镇", "center": {"longitude": 110.397028, "latitude": 18.794435}}, {"name": "南桥镇", "center": {"longitude": 110.152697, "latitude": 18.680116}}, {"name": "长丰镇", "center": {"longitude": 110.327657, "latitude": 18.800665}}, {"name": "东澳镇", "center": {"longitude": 110.401814, "latitude": 18.714928}}, {"name": "三更罗镇", "center": {"longitude": 110.186521, "latitude": 18.860493}}, {"name": "和乐镇", "center": {"longitude": 110.477641, "latitude": 18.903521}}, {"name": "山根镇", "center": {"longitude": 110.486591, "latitude": 18.967334}}, {"name": "文昌市", "center": {"longitude": 110.797717, "latitude": 19.543422}}, {"name": "重兴镇", "center": {"longitude": 110.59675, "latitude": 19.411589}}, {"name": "潭牛镇", "center": {"longitude": 110.735357, "latitude": 19.710084}}, {"name": "文城镇", "center": {"longitude": 110.753868, "latitude": 19.613781}}, {"name": "会文镇", "center": {"longitude": 110.731756, "latitude": 19.462573}}, {"name": "东路镇", "center": {"longitude": 110.706497, "latitude": 19.791949}}, {"name": "冯坡镇", "center": {"longitude": 110.783953, "latitude": 19.964651}}, {"name": "文教镇", "center": {"longitude": 110.90782, "latitude": 19.66768}}, {"name": "锦山镇", "center": {"longitude": 110.69748, "latitude": 19.99583}}, {"name": "蓬莱镇", "center": {"longitude": 110.541209, "latitude": 19.536767}}, {"name": "东阁镇", "center": {"longitude": 110.849213, "latitude": 19.656873}}, {"name": "昌洒镇", "center": {"longitude": 110.900498, "latitude": 19.76179}}, {"name": "铺前镇", "center": {"longitude": 110.580002, "latitude": 20.023731}}, {"name": "翁田镇", "center": {"longitude": 110.880179, "latitude": 19.931473}}, {"name": "东郊镇", "center": {"longitude": 110.851831, "latitude": 19.573201}}, {"name": "抱罗镇", "center": {"longitude": 110.748935, "latitude": 19.843477}}, {"name": "公坡镇", "center": {"longitude": 110.808679, "latitude": 19.789147}}, {"name": "龙楼镇", "center": {"longitude": 110.968604, "latitude": 19.653286}}, {"name": "五指山市", "center": {"longitude": 109.516925, "latitude": 18.775146}}, {"name": "番阳镇", "center": {"longitude": 109.39785, "latitude": 18.874421}}, {"name": "冲山镇", "center": {"longitude": 109.516626, "latitude": 18.780681}}, {"name": "毛阳镇", "center": {"longitude": 109.50804, "latitude": 18.936964}}, {"name": "水满乡", "center": {"longitude": 109.667012, "latitude": 18.881007}}, {"name": "通什镇", "center": {"longitude": 109.517189, "latitude": 18.780692}}, {"name": "南圣镇", "center": {"longitude": 109.592708, "latitude": 18.738439}}, {"name": "毛道乡", "center": {"longitude": 109.410699, "latitude": 18.791255}}, {"name": "畅好乡", "center": {"longitude": 109.48221, "latitude": 18.734951}}, {"name": "贵州省", "center": {"longitude": 106.70546, "latitude": 26.600055}}, {"name": "安顺市", "center": {"longitude": 105.947594, "latitude": 26.253088}}, {"name": "关岭布依族苗族自治县", "center": {"longitude": 105.61933, "latitude": 25.94361}}, {"name": "平坝区", "center": {"longitude": 106.256412, "latitude": 26.405715}}, {"name": "普定县", "center": {"longitude": 105.743277, "latitude": 26.301565}}, {"name": "西秀区", "center": {"longitude": 105.965116, "latitude": 26.245315}}, {"name": "镇宁布依族苗族自治县", "center": {"longitude": 105.770283, "latitude": 26.058086}}, {"name": "紫云苗族布依族自治县", "center": {"longitude": 106.084441, "latitude": 25.751047}}, {"name": "毕节市", "center": {"longitude": 105.291702, "latitude": 27.283908}}, {"name": "大方县", "center": {"longitude": 105.613037, "latitude": 27.141735}}, {"name": "赫章县", "center": {"longitude": 104.727418, "latitude": 27.123078}}, {"name": "金沙县", "center": {"longitude": 106.220227, "latitude": 27.459214}}, {"name": "纳雍县", "center": {"longitude": 105.382714, "latitude": 26.777645}}, {"name": "七星关区", "center": {"longitude": 105.30474, "latitude": 27.298458}}, {"name": "黔西县", "center": {"longitude": 106.033544, "latitude": 27.007713}}, {"name": "威宁彝族回族苗族自治县", "center": {"longitude": 104.253071, "latitude": 26.873806}}, {"name": "织金县", "center": {"longitude": 105.770542, "latitude": 26.663449}}, {"name": "贵阳市", "center": {"longitude": 106.630153, "latitude": 26.647661}}, {"name": "白云区", "center": {"longitude": 106.623007, "latitude": 26.678561}}, {"name": "观山湖区", "center": {"longitude": 106.622453, "latitude": 26.60145}}, {"name": "花溪区", "center": {"longitude": 106.67026, "latitude": 26.409817}}, {"name": "开阳县", "center": {"longitude": 106.965089, "latitude": 27.057764}}, {"name": "南明区", "center": {"longitude": 106.714374, "latitude": 26.567944}}, {"name": "清镇市", "center": {"longitude": 106.470714, "latitude": 26.556079}}, {"name": "乌当区", "center": {"longitude": 106.750625, "latitude": 26.630845}}, {"name": "息烽县", "center": {"longitude": 106.740407, "latitude": 27.090479}}, {"name": "修文县", "center": {"longitude": 106.592108, "latitude": 26.838926}}, {"name": "云岩区", "center": {"longitude": 106.724494, "latitude": 26.604688}}, {"name": "六盘水市", "center": {"longitude": 104.830458, "latitude": 26.592707}}, {"name": "六枝特区", "center": {"longitude": 105.476608, "latitude": 26.213108}}, {"name": "盘州市", "center": {"longitude": 104.471375, "latitude": 25.709852}}, {"name": "水城县", "center": {"longitude": 104.95783, "latitude": 26.547904}}, {"name": "钟山区", "center": {"longitude": 104.843555, "latitude": 26.574979}}, {"name": "黔西南布依族苗族自治州", "center": {"longitude": 104.906397, "latitude": 25.087856}}, {"name": "安龙县", "center": {"longitude": 105.442701, "latitude": 25.099014}}, {"name": "册亨县", "center": {"longitude": 105.811592, "latitude": 24.983663}}, {"name": "普安县", "center": {"longitude": 104.953062, "latitude": 25.784135}}, {"name": "晴隆县", "center": {"longitude": 105.218991, "latitude": 25.834783}}, {"name": "望谟县", "center": {"longitude": 106.099617, "latitude": 25.178421}}, {"name": "兴仁县", "center": {"longitude": 105.186237, "latitude": 25.435183}}, {"name": "兴义市", "center": {"longitude": 104.895467, "latitude": 25.09204}}, {"name": "贞丰县", "center": {"longitude": 105.649864, "latitude": 25.38576}}, {"name": "黔南布依族苗族自治州", "center": {"longitude": 107.522171, "latitude": 26.253275}}, {"name": "都匀市", "center": {"longitude": 107.518847, "latitude": 26.259427}}, {"name": "独山县", "center": {"longitude": 107.545048, "latitude": 25.822132}}, {"name": "福泉市", "center": {"longitude": 107.520386, "latitude": 26.686335}}, {"name": "贵定县", "center": {"longitude": 107.232793, "latitude": 26.557089}}, {"name": "惠水县", "center": {"longitude": 106.656442, "latitude": 26.13278}}, {"name": "荔波县", "center": {"longitude": 107.898882, "latitude": 25.423895}}, {"name": "龙里县", "center": {"longitude": 106.979524, "latitude": 26.453154}}, {"name": "罗甸县", "center": {"longitude": 106.751589, "latitude": 25.426173}}, {"name": "平塘县", "center": {"longitude": 107.322323, "latitude": 25.822349}}, {"name": "三都水族自治县", "center": {"longitude": 107.869749, "latitude": 25.983202}}, {"name": "瓮安县", "center": {"longitude": 107.470942, "latitude": 27.078441}}, {"name": "长顺县", "center": {"longitude": 106.441805, "latitude": 26.025626}}, {"name": "黔东南苗族侗族自治州", "center": {"longitude": 107.982874, "latitude": 26.583457}}, {"name": "岑巩县", "center": {"longitude": 108.81606, "latitude": 27.173887}}, {"name": "从江县", "center": {"longitude": 108.905329, "latitude": 25.753009}}, {"name": "丹寨县", "center": {"longitude": 107.788727, "latitude": 26.19832}}, {"name": "黄平县", "center": {"longitude": 107.916411, "latitude": 26.905396}}, {"name": "剑河县", "center": {"longitude": 108.441501, "latitude": 26.728274}}, {"name": "锦屏县", "center": {"longitude": 109.200534, "latitude": 26.676233}}, {"name": "凯里市", "center": {"longitude": 107.97754, "latitude": 26.582963}}, {"name": "雷山县", "center": {"longitude": 108.07754, "latitude": 26.378442}}, {"name": "黎平县", "center": {"longitude": 109.136932, "latitude": 26.230706}}, {"name": "麻江县", "center": {"longitude": 107.589359, "latitude": 26.491105}}, {"name": "三穗县", "center": {"longitude": 108.675267, "latitude": 26.952967}}, {"name": "榕江县", "center": {"longitude": 108.52188, "latitude": 25.931893}}, {"name": "施秉县", "center": {"longitude": 108.124379, "latitude": 27.03292}}, {"name": "台江县", "center": {"longitude": 108.321245, "latitude": 26.667525}}, {"name": "天柱县", "center": {"longitude": 109.207751, "latitude": 26.909639}}, {"name": "镇远县", "center": {"longitude": 108.429534, "latitude": 27.049497}}, {"name": "铜仁市", "center": {"longitude": 109.189598, "latitude": 27.731514}}, {"name": "碧江区", "center": {"longitude": 109.263998, "latitude": 27.815927}}, {"name": "德江县", "center": {"longitude": 108.119807, "latitude": 28.263963}}, {"name": "江口县", "center": {"longitude": 108.839557, "latitude": 27.69965}}, {"name": "石阡县", "center": {"longitude": 108.223612, "latitude": 27.513829}}, {"name": "思南县", "center": {"longitude": 108.253882, "latitude": 27.93755}}, {"name": "松桃苗族自治县", "center": {"longitude": 109.202886, "latitude": 28.154071}}, {"name": "万山区", "center": {"longitude": 109.213644, "latitude": 27.517896}}, {"name": "沿河土家族自治县", "center": {"longitude": 108.50387, "latitude": 28.563927}}, {"name": "印江土家族苗族自治县", "center": {"longitude": 108.409751, "latitude": 27.994246}}, {"name": "玉屏侗族自治县", "center": {"longitude": 108.906411, "latitude": 27.235813}}, {"name": "遵义市", "center": {"longitude": 106.927389, "latitude": 27.725654}}, {"name": "播州区", "center": {"longitude": 106.829574, "latitude": 27.536298}}, {"name": "赤水市", "center": {"longitude": 105.697472, "latitude": 28.590337}}, {"name": "道真仡佬族苗族自治县", "center": {"longitude": 107.613133, "latitude": 28.862425}}, {"name": "凤冈县", "center": {"longitude": 107.716355, "latitude": 27.954695}}, {"name": "红花岗区", "center": {"longitude": 106.8937, "latitude": 27.644754}}, {"name": "汇川区", "center": {"longitude": 106.93427, "latitude": 27.750125}}, {"name": "湄潭县", "center": {"longitude": 107.465407, "latitude": 27.749055}}, {"name": "仁怀市", "center": {"longitude": 106.40109, "latitude": 27.792514}}, {"name": "绥阳县", "center": {"longitude": 107.191222, "latitude": 27.946222}}, {"name": "桐梓县", "center": {"longitude": 106.825198, "latitude": 28.133311}}, {"name": "务川仡佬族苗族自治县", "center": {"longitude": 107.898956, "latitude": 28.563086}}, {"name": "习水县", "center": {"longitude": 106.197137, "latitude": 28.33127}}, {"name": "余庆县", "center": {"longitude": 107.905197, "latitude": 27.215491}}, {"name": "正安县", "center": {"longitude": 107.453945, "latitude": 28.553285}}, {"name": "山西省", "center": {"longitude": 112.562678, "latitude": 37.873499}}, {"name": "大同市", "center": {"longitude": 113.300129, "latitude": 40.076763}}, {"name": "城区", "center": {"longitude": 113.298026, "latitude": 40.075666}}, {"name": "大同县", "center": {"longitude": 113.61244, "latitude": 40.040294}}, {"name": "广灵县", "center": {"longitude": 114.282758, "latitude": 39.760281}}, {"name": "浑源县", "center": {"longitude": 113.699475, "latitude": 39.693406}}, {"name": "矿区", "center": {"longitude": 113.177206, "latitude": 40.036858}}, {"name": "灵丘县", "center": {"longitude": 114.23435, "latitude": 39.442406}}, {"name": "南郊区", "center": {"longitude": 113.149693, "latitude": 40.005404}}, {"name": "天镇县", "center": {"longitude": 114.090867, "latitude": 40.420237}}, {"name": "新荣区", "center": {"longitude": 113.140004, "latitude": 40.255866}}, {"name": "阳高县", "center": {"longitude": 113.748944, "latitude": 40.361059}}, {"name": "左云县", "center": {"longitude": 112.703008, "latitude": 40.013442}}, {"name": "晋城市", "center": {"longitude": 112.851486, "latitude": 35.490684}}, {"name": "城区", "center": {"longitude": 112.853555, "latitude": 35.501571}}, {"name": "高平市", "center": {"longitude": 112.92392, "latitude": 35.797997}}, {"name": "陵川县", "center": {"longitude": 113.280688, "latitude": 35.775685}}, {"name": "沁水县", "center": {"longitude": 112.186738, "latitude": 35.690141}}, {"name": "阳城县", "center": {"longitude": 112.414738, "latitude": 35.486029}}, {"name": "泽州县", "center": {"longitude": 112.899137, "latitude": 35.617221}}, {"name": "晋中市", "center": {"longitude": 112.752652, "latitude": 37.687357}}, {"name": "和顺县", "center": {"longitude": 113.570415, "latitude": 37.32957}}, {"name": "介休市", "center": {"longitude": 111.916711, "latitude": 37.026944}}, {"name": "灵石县", "center": {"longitude": 111.77864, "latitude": 36.847927}}, {"name": "平遥县", "center": {"longitude": 112.176136, "latitude": 37.189421}}, {"name": "祁县", "center": {"longitude": 112.335542, "latitude": 37.357869}}, {"name": "寿阳县", "center": {"longitude": 113.176373, "latitude": 37.895191}}, {"name": "太谷县", "center": {"longitude": 112.551305, "latitude": 37.421307}}, {"name": "昔阳县", "center": {"longitude": 113.706977, "latitude": 37.61253}}, {"name": "榆次区", "center": {"longitude": 112.708224, "latitude": 37.697794}}, {"name": "榆社县", "center": {"longitude": 112.975209, "latitude": 37.070916}}, {"name": "左权县", "center": {"longitude": 113.379403, "latitude": 37.082943}}, {"name": "临汾市", "center": {"longitude": 111.518975, "latitude": 36.088005}}, {"name": "安泽县", "center": {"longitude": 112.250144, "latitude": 36.147787}}, {"name": "大宁县", "center": {"longitude": 110.75291, "latitude": 36.465102}}, {"name": "汾西县", "center": {"longitude": 111.56395, "latitude": 36.652854}}, {"name": "浮山县", "center": {"longitude": 111.848883, "latitude": 35.968124}}, {"name": "古县", "center": {"longitude": 111.920465, "latitude": 36.266914}}, {"name": "洪洞县", "center": {"longitude": 111.674965, "latitude": 36.253747}}, {"name": "侯马市", "center": {"longitude": 111.372002, "latitude": 35.619105}}, {"name": "霍州市", "center": {"longitude": 111.755398, "latitude": 36.56893}}, {"name": "吉县", "center": {"longitude": 110.681763, "latitude": 36.098188}}, {"name": "蒲县", "center": {"longitude": 111.096439, "latitude": 36.411826}}, {"name": "曲沃县", "center": {"longitude": 111.47586, "latitude": 35.641086}}, {"name": "隰县", "center": {"longitude": 110.940637, "latitude": 36.69333}}, {"name": "襄汾县", "center": {"longitude": 111.441725, "latitude": 35.876293}}, {"name": "乡宁县", "center": {"longitude": 110.847021, "latitude": 35.970389}}, {"name": "尧都区", "center": {"longitude": 111.579554, "latitude": 36.07884}}, {"name": "翼城县", "center": {"longitude": 111.718951, "latitude": 35.738576}}, {"name": "永和县", "center": {"longitude": 110.632006, "latitude": 36.759507}}, {"name": "吕梁市", "center": {"longitude": 111.144699, "latitude": 37.519126}}, {"name": "方山县", "center": {"longitude": 111.244098, "latitude": 37.894631}}, {"name": "汾阳市", "center": {"longitude": 111.770477, "latitude": 37.261756}}, {"name": "交城县", "center": {"longitude": 112.156064, "latitude": 37.551963}}, {"name": "交口县", "center": {"longitude": 111.181151, "latitude": 36.982186}}, {"name": "岚县", "center": {"longitude": 111.671917, "latitude": 38.279299}}, {"name": "离石区", "center": {"longitude": 111.150695, "latitude": 37.51786}}, {"name": "柳林县", "center": {"longitude": 110.889007, "latitude": 37.429772}}, {"name": "临县", "center": {"longitude": 110.992093, "latitude": 37.950758}}, {"name": "石楼县", "center": {"longitude": 110.834634, "latitude": 36.99857}}, {"name": "文水县", "center": {"longitude": 112.028866, "latitude": 37.438101}}, {"name": "孝义市", "center": {"longitude": 111.778818, "latitude": 37.146294}}, {"name": "兴县", "center": {"longitude": 111.127667, "latitude": 38.462389}}, {"name": "中阳县", "center": {"longitude": 111.179657, "latitude": 37.357058}}, {"name": "朔州市", "center": {"longitude": 112.432991, "latitude": 39.331855}}, {"name": "怀仁县", "center": {"longitude": 113.131717, "latitude": 39.821627}}, {"name": "平鲁区", "center": {"longitude": 112.28833, "latitude": 39.512155}}, {"name": "山阴县", "center": {"longitude": 112.816413, "latitude": 39.527893}}, {"name": "朔城区", "center": {"longitude": 112.432312, "latitude": 39.319519}}, {"name": "应县", "center": {"longitude": 113.191098, "latitude": 39.554247}}, {"name": "右玉县", "center": {"longitude": 112.466989, "latitude": 39.989063}}, {"name": "太原市", "center": {"longitude": 112.548879, "latitude": 37.87059}}, {"name": "古交市", "center": {"longitude": 112.175853, "latitude": 37.907129}}, {"name": "尖草坪区", "center": {"longitude": 112.486691, "latitude": 37.940387}}, {"name": "晋源区", "center": {"longitude": 112.47794, "latitude": 37.715193}}, {"name": "娄烦县", "center": {"longitude": 111.797083, "latitude": 38.067932}}, {"name": "清徐县", "center": {"longitude": 112.358667, "latitude": 37.607443}}, {"name": "万柏林区", "center": {"longitude": 112.515937, "latitude": 37.85958}}, {"name": "小店区", "center": {"longitude": 112.565659, "latitude": 37.736525}}, {"name": "杏花岭区", "center": {"longitude": 112.570604, "latitude": 37.893955}}, {"name": "阳曲县", "center": {"longitude": 112.672952, "latitude": 38.058488}}, {"name": "迎泽区", "center": {"longitude": 112.5634, "latitude": 37.863451}}, {"name": "阳泉市", "center": {"longitude": 113.580519, "latitude": 37.856971}}, {"name": "城区", "center": {"longitude": 113.600669, "latitude": 37.847436}}, {"name": "郊区", "center": {"longitude": 113.594163, "latitude": 37.944679}}, {"name": "矿区", "center": {"longitude": 113.555279, "latitude": 37.868494}}, {"name": "平定县", "center": {"longitude": 113.630107, "latitude": 37.804988}}, {"name": "盂县", "center": {"longitude": 113.41233, "latitude": 38.085619}}, {"name": "忻州市", "center": {"longitude": 112.734174, "latitude": 38.416663}}, {"name": "保德县", "center": {"longitude": 111.086564, "latitude": 39.022487}}, {"name": "代县", "center": {"longitude": 112.960282, "latitude": 39.066917}}, {"name": "定襄县", "center": {"longitude": 112.957237, "latitude": 38.473506}}, {"name": "繁峙县", "center": {"longitude": 113.265563, "latitude": 39.188811}}, {"name": "河曲县", "center": {"longitude": 111.138472, "latitude": 39.384482}}, {"name": "静乐县", "center": {"longitude": 111.939498, "latitude": 38.359306}}, {"name": "岢岚县", "center": {"longitude": 111.57285, "latitude": 38.70418}}, {"name": "宁武县", "center": {"longitude": 112.304722, "latitude": 39.001524}}, {"name": "偏关县", "center": {"longitude": 111.508831, "latitude": 39.436306}}, {"name": "神池县", "center": {"longitude": 112.211296, "latitude": 39.090552}}, {"name": "五寨县", "center": {"longitude": 111.846904, "latitude": 38.910726}}, {"name": "五台县", "center": {"longitude": 113.255309, "latitude": 38.728315}}, {"name": "忻府区", "center": {"longitude": 112.746046, "latitude": 38.404242}}, {"name": "原平市", "center": {"longitude": 112.711058, "latitude": 38.731402}}, {"name": "运城市", "center": {"longitude": 111.00746, "latitude": 35.026516}}, {"name": "河津市", "center": {"longitude": 110.712063, "latitude": 35.596383}}, {"name": "稷山县", "center": {"longitude": 110.983333, "latitude": 35.604025}}, {"name": "绛县", "center": {"longitude": 111.568236, "latitude": 35.49119}}, {"name": "临猗县", "center": {"longitude": 110.774547, "latitude": 35.144277}}, {"name": "平陆县", "center": {"longitude": 111.194133, "latitude": 34.82926}}, {"name": "芮城县", "center": {"longitude": 110.694369, "latitude": 34.693579}}, {"name": "万荣县", "center": {"longitude": 110.838024, "latitude": 35.415253}}, {"name": "闻喜县", "center": {"longitude": 111.22472, "latitude": 35.356644}}, {"name": "夏县", "center": {"longitude": 111.220456, "latitude": 35.141363}}, {"name": "新绛县", "center": {"longitude": 111.224734, "latitude": 35.616251}}, {"name": "盐湖区", "center": {"longitude": 110.998272, "latitude": 35.015101}}, {"name": "永济市", "center": {"longitude": 110.447543, "latitude": 34.8671}}, {"name": "垣曲县", "center": {"longitude": 111.670108, "latitude": 35.297369}}, {"name": "长治市", "center": {"longitude": 113.116404, "latitude": 36.195409}}, {"name": "城区", "center": {"longitude": 113.123088, "latitude": 36.20353}}, {"name": "壶关县", "center": {"longitude": 113.207049, "latitude": 36.115448}}, {"name": "郊区", "center": {"longitude": 113.101211, "latitude": 36.218388}}, {"name": "黎城县", "center": {"longitude": 113.387155, "latitude": 36.502328}}, {"name": "潞城市", "center": {"longitude": 113.228852, "latitude": 36.334104}}, {"name": "平顺县", "center": {"longitude": 113.435961, "latitude": 36.200179}}, {"name": "沁县", "center": {"longitude": 112.699226, "latitude": 36.756063}}, {"name": "沁源县", "center": {"longitude": 112.337446, "latitude": 36.5002}}, {"name": "屯留县", "center": {"longitude": 112.891998, "latitude": 36.315663}}, {"name": "武乡县", "center": {"longitude": 112.864561, "latitude": 36.837625}}, {"name": "襄垣县", "center": {"longitude": 113.051491, "latitude": 36.535817}}, {"name": "长治县", "center": {"longitude": 113.051407, "latitude": 36.052858}}, {"name": "长子县", "center": {"longitude": 112.8779, "latitude": 36.122334}}, {"name": "台湾省", "center": {"longitude": 121.509062, "latitude": 25.044332}}, {"name": "甘肃省", "center": {"longitude": 103.826447, "latitude": 36.05956}}, {"name": "白银市", "center": {"longitude": 104.138771, "latitude": 36.545261}}, {"name": "白银区", "center": {"longitude": 104.148556, "latitude": 36.535398}}, {"name": "会宁县", "center": {"longitude": 105.053358, "latitude": 35.692823}}, {"name": "景泰县", "center": {"longitude": 104.063091, "latitude": 37.183804}}, {"name": "靖远县", "center": {"longitude": 104.676774, "latitude": 36.571365}}, {"name": "平川区", "center": {"longitude": 104.825208, "latitude": 36.728304}}, {"name": "甘南藏族自治州", "center": {"longitude": 102.910995, "latitude": 34.983409}}, {"name": "迭部县", "center": {"longitude": 103.221869, "latitude": 34.055938}}, {"name": "合作市", "center": {"longitude": 102.910484, "latitude": 35.000286}}, {"name": "临潭县", "center": {"longitude": 103.353919, "latitude": 34.692747}}, {"name": "碌曲县", "center": {"longitude": 102.487327, "latitude": 34.590944}}, {"name": "玛曲县", "center": {"longitude": 102.072698, "latitude": 33.997712}}, {"name": "夏河县", "center": {"longitude": 102.521807, "latitude": 35.202503}}, {"name": "舟曲县", "center": {"longitude": 104.251482, "latitude": 33.793631}}, {"name": "卓尼县", "center": {"longitude": 103.507109, "latitude": 34.589588}}, {"name": "定西市", "center": {"longitude": 104.592225, "latitude": 35.606978}}, {"name": "安定区", "center": {"longitude": 104.610668, "latitude": 35.580629}}, {"name": "临洮县", "center": {"longitude": 103.859565, "latitude": 35.394988}}, {"name": "陇西县", "center": {"longitude": 104.634983, "latitude": 35.00394}}, {"name": "岷县", "center": {"longitude": 104.03688, "latitude": 34.438075}}, {"name": "通渭县", "center": {"longitude": 105.24206, "latitude": 35.210831}}, {"name": "渭源县", "center": {"longitude": 104.215467, "latitude": 35.136755}}, {"name": "漳县", "center": {"longitude": 104.471572, "latitude": 34.848444}}, {"name": "嘉峪关市", "center": {"longitude": 98.289419, "latitude": 39.772554}}, {"name": "嘉峪关乡", "center": {"longitude": 98.225891, "latitude": 39.812293}}, {"name": "前进路街道", "center": {"longitude": 98.261242, "latitude": 39.767627}}, {"name": "五一路街道", "center": {"longitude": 98.272798, "latitude": 39.788242}}, {"name": "建设路街道", "center": {"longitude": 98.280403, "latitude": 39.785651}}, {"name": "新华路街道", "center": {"longitude": 98.268344, "latitude": 39.808651}}, {"name": "前进街道", "center": {"longitude": 98.260744, "latitude": 39.763898}}, {"name": "峪泉镇", "center": {"longitude": 98.231491, "latitude": 39.807959}}, {"name": "新城镇", "center": {"longitude": 98.451709, "latitude": 39.875401}}, {"name": "文殊镇", "center": {"longitude": 98.378358, "latitude": 39.693957}}, {"name": "金昌市", "center": {"longitude": 102.188117, "latitude": 38.520717}}, {"name": "金川区", "center": {"longitude": 102.194015, "latitude": 38.521087}}, {"name": "永昌县", "center": {"longitude": 101.984458, "latitude": 38.243434}}, {"name": "酒泉市", "center": {"longitude": 98.493927, "latitude": 39.732795}}, {"name": "阿克塞哈萨克族自治县", "center": {"longitude": 94.340204, "latitude": 39.633943}}, {"name": "敦煌市", "center": {"longitude": 94.661941, "latitude": 40.142089}}, {"name": "瓜州县", "center": {"longitude": 95.782318, "latitude": 40.520538}}, {"name": "金塔县", "center": {"longitude": 98.901252, "latitude": 39.983955}}, {"name": "肃州区", "center": {"longitude": 98.507843, "latitude": 39.744953}}, {"name": "肃北蒙古族自治县", "center": {"longitude": 94.876579, "latitude": 39.51245}}, {"name": "玉门市", "center": {"longitude": 97.045661, "latitude": 40.292106}}, {"name": "兰州市", "center": {"longitude": 103.834303, "latitude": 36.061089}}, {"name": "安宁区", "center": {"longitude": 103.719054, "latitude": 36.104579}}, {"name": "城关区", "center": {"longitude": 103.825307, "latitude": 36.057464}}, {"name": "皋兰县", "center": {"longitude": 103.947377, "latitude": 36.332663}}, {"name": "红古区", "center": {"longitude": 102.859323, "latitude": 36.345669}}, {"name": "七里河区", "center": {"longitude": 103.785949, "latitude": 36.066146}}, {"name": "西固区", "center": {"longitude": 103.627951, "latitude": 36.088552}}, {"name": "永登县", "center": {"longitude": 103.26038, "latitude": 36.736513}}, {"name": "榆中县", "center": {"longitude": 104.112527, "latitude": 35.843056}}, {"name": "临夏回族自治州", "center": {"longitude": 103.210655, "latitude": 35.601352}}, {"name": "东乡族自治县", "center": {"longitude": 103.389346, "latitude": 35.663752}}, {"name": "广河县", "center": {"longitude": 103.575834, "latitude": 35.488051}}, {"name": "和政县", "center": {"longitude": 103.350997, "latitude": 35.424603}}, {"name": "积石山保安族东乡族撒拉族自治县", "center": {"longitude": 102.875843, "latitude": 35.71766}}, {"name": "康乐县", "center": {"longitude": 103.708354, "latitude": 35.370505}}, {"name": "临夏市", "center": {"longitude": 103.243021, "latitude": 35.604376}}, {"name": "临夏县", "center": {"longitude": 103.039826, "latitude": 35.478722}}, {"name": "永靖县", "center": {"longitude": 103.285853, "latitude": 35.958306}}, {"name": "陇南市", "center": {"longitude": 104.960851, "latitude": 33.37068}}, {"name": "成县", "center": {"longitude": 105.742424, "latitude": 33.75061}}, {"name": "宕昌县", "center": {"longitude": 104.393385, "latitude": 34.047261}}, {"name": "徽县", "center": {"longitude": 106.08778, "latitude": 33.768826}}, {"name": "康县", "center": {"longitude": 105.609169, "latitude": 33.329136}}, {"name": "礼县", "center": {"longitude": 105.17864, "latitude": 34.189345}}, {"name": "两当县", "center": {"longitude": 106.304966, "latitude": 33.908917}}, {"name": "文县", "center": {"longitude": 104.683433, "latitude": 32.943815}}, {"name": "武都区", "center": {"longitude": 104.926337, "latitude": 33.392211}}, {"name": "西和县", "center": {"longitude": 105.298756, "latitude": 34.014215}}, {"name": "平凉市", "center": {"longitude": 106.665061, "latitude": 35.542606}}, {"name": "崇信县", "center": {"longitude": 107.025763, "latitude": 35.305596}}, {"name": "华亭县", "center": {"longitude": 106.653158, "latitude": 35.218292}}, {"name": "泾川县", "center": {"longitude": 107.36785, "latitude": 35.332666}}, {"name": "静宁县", "center": {"longitude": 105.732556, "latitude": 35.521976}}, {"name": "崆峒区", "center": {"longitude": 106.674767, "latitude": 35.542491}}, {"name": "灵台县", "center": {"longitude": 107.595874, "latitude": 35.070027}}, {"name": "庄浪县", "center": {"longitude": 106.036686, "latitude": 35.202385}}, {"name": "庆阳市", "center": {"longitude": 107.643571, "latitude": 35.70898}}, {"name": "合水县", "center": {"longitude": 108.019554, "latitude": 35.819194}}, {"name": "华池县", "center": {"longitude": 107.990062, "latitude": 36.461306}}, {"name": "环县", "center": {"longitude": 107.308501, "latitude": 36.568434}}, {"name": "宁县", "center": {"longitude": 107.928371, "latitude": 35.502176}}, {"name": "庆城县", "center": {"longitude": 107.881802, "latitude": 36.016299}}, {"name": "西峰区", "center": {"longitude": 107.651077, "latitude": 35.730652}}, {"name": "镇原县", "center": {"longitude": 107.200832, "latitude": 35.677462}}, {"name": "正宁县", "center": {"longitude": 108.359865, "latitude": 35.49178}}, {"name": "天水市", "center": {"longitude": 105.724979, "latitude": 34.580885}}, {"name": "甘谷县", "center": {"longitude": 105.340747, "latitude": 34.745486}}, {"name": "麦积区", "center": {"longitude": 105.889556, "latitude": 34.570384}}, {"name": "秦安县", "center": {"longitude": 105.674982, "latitude": 34.858916}}, {"name": "秦州区", "center": {"longitude": 105.724215, "latitude": 34.580888}}, {"name": "清水县", "center": {"longitude": 106.137293, "latitude": 34.749864}}, {"name": "武山县", "center": {"longitude": 104.890587, "latitude": 34.72139}}, {"name": "张家川回族自治县", "center": {"longitude": 106.204517, "latitude": 34.988037}}, {"name": "武威市", "center": {"longitude": 102.638201, "latitude": 37.928267}}, {"name": "古浪县", "center": {"longitude": 102.897533, "latitude": 37.47012}}, {"name": "凉州区", "center": {"longitude": 102.642184, "latitude": 37.928224}}, {"name": "民勤县", "center": {"longitude": 103.093791, "latitude": 38.62435}}, {"name": "天祝藏族自治县", "center": {"longitude": 103.141757, "latitude": 36.97174}}, {"name": "张掖市", "center": {"longitude": 100.449913, "latitude": 38.925548}}, {"name": "甘州区", "center": {"longitude": 100.415096, "latitude": 38.944662}}, {"name": "高台县", "center": {"longitude": 99.819519, "latitude": 39.378311}}, {"name": "临泽县", "center": {"longitude": 100.164283, "latitude": 39.152462}}, {"name": "民乐县", "center": {"longitude": 100.812629, "latitude": 38.430347}}, {"name": "山丹县", "center": {"longitude": 101.088529, "latitude": 38.784505}}, {"name": "肃南裕固族自治县", "center": {"longitude": 99.615601, "latitude": 38.836931}}, {"name": "上海市", "center": {"longitude": 121.473662, "latitude": 31.230372}}, {"name": "上海城区", "center": {"longitude": 121.473662, "latitude": 31.230372}}, {"name": "宝山区", "center": {"longitude": 121.489612, "latitude": 31.405457}}, {"name": "崇明区", "center": {"longitude": 121.397421, "latitude": 31.623728}}, {"name": "奉贤区", "center": {"longitude": 121.474055, "latitude": 30.917766}}, {"name": "虹口区", "center": {"longitude": 121.505133, "latitude": 31.2646}}, {"name": "黄浦区", "center": {"longitude": 121.484428, "latitude": 31.231739}}, {"name": "嘉定区", "center": {"longitude": 121.265374, "latitude": 31.375869}}, {"name": "金山区", "center": {"longitude": 121.342455, "latitude": 30.741798}}, {"name": "静安区", "center": {"longitude": 121.447453, "latitude": 31.227906}}, {"name": "闵行区", "center": {"longitude": 121.380831, "latitude": 31.1129}}, {"name": "浦东新区", "center": {"longitude": 121.544379, "latitude": 31.221517}}, {"name": "普陀区", "center": {"longitude": 121.395514, "latitude": 31.249603}}, {"name": "青浦区", "center": {"longitude": 121.124178, "latitude": 31.150681}}, {"name": "松江区", "center": {"longitude": 121.227747, "latitude": 31.032243}}, {"name": "徐汇区", "center": {"longitude": 121.436128, "latitude": 31.188464}}, {"name": "杨浦区", "center": {"longitude": 121.525727, "latitude": 31.259822}}, {"name": "长宁区", "center": {"longitude": 121.424622, "latitude": 31.220372}}, {"name": "安徽省", "center": {"longitude": 117.329949, "latitude": 31.733806}}, {"name": "安庆市", "center": {"longitude": 117.115101, "latitude": 30.531919}}, {"name": "大观区", "center": {"longitude": 117.013469, "latitude": 30.553697}}, {"name": "怀宁县", "center": {"longitude": 116.829475, "latitude": 30.733824}}, {"name": "潜山县", "center": {"longitude": 116.581371, "latitude": 30.631136}}, {"name": "宿松县", "center": {"longitude": 116.129105, "latitude": 30.153746}}, {"name": "太湖县", "center": {"longitude": 116.308795, "latitude": 30.45422}}, {"name": "桐城市", "center": {"longitude": 116.936748, "latitude": 31.035848}}, {"name": "望江县", "center": {"longitude": 116.706498, "latitude": 30.128002}}, {"name": "宜秀区", "center": {"longitude": 116.987542, "latitude": 30.613332}}, {"name": "迎江区", "center": {"longitude": 117.09115, "latitude": 30.511548}}, {"name": "岳西县", "center": {"longitude": 116.359692, "latitude": 30.849762}}, {"name": "蚌埠市", "center": {"longitude": 117.388512, "latitude": 32.91663}}, {"name": "蚌山区", "center": {"longitude": 117.373595, "latitude": 32.917048}}, {"name": "固镇县", "center": {"longitude": 117.316913, "latitude": 33.31688}}, {"name": "淮上区", "center": {"longitude": 117.35933, "latitude": 32.965435}}, {"name": "怀远县", "center": {"longitude": 117.205237, "latitude": 32.970031}}, {"name": "龙子湖区", "center": {"longitude": 117.379778, "latitude": 32.950611}}, {"name": "五河县", "center": {"longitude": 117.879486, "latitude": 33.127823}}, {"name": "禹会区", "center": {"longitude": 117.342155, "latitude": 32.929799}}, {"name": "亳州市", "center": {"longitude": 115.77867, "latitude": 33.844592}}, {"name": "利辛县", "center": {"longitude": 116.208564, "latitude": 33.144515}}, {"name": "蒙城县", "center": {"longitude": 116.564247, "latitude": 33.26583}}, {"name": "谯城区", "center": {"longitude": 115.779025, "latitude": 33.876235}}, {"name": "涡阳县", "center": {"longitude": 116.215665, "latitude": 33.492921}}, {"name": "滁州市", "center": {"longitude": 118.327944, "latitude": 32.255636}}, {"name": "定远县", "center": {"longitude": 117.698562, "latitude": 32.530981}}, {"name": "凤阳县", "center": {"longitude": 117.531622, "latitude": 32.874735}}, {"name": "来安县", "center": {"longitude": 118.435718, "latitude": 32.452199}}, {"name": "琅琊区", "center": {"longitude": 118.305961, "latitude": 32.294631}}, {"name": "明光市", "center": {"longitude": 118.018193, "latitude": 32.78196}}, {"name": "南谯区", "center": {"longitude": 118.41697, "latitude": 32.200197}}, {"name": "全椒县", "center": {"longitude": 118.274149, "latitude": 32.08593}}, {"name": "天长市", "center": {"longitude": 119.004816, "latitude": 32.667571}}, {"name": "池州市", "center": {"longitude": 117.491592, "latitude": 30.664779}}, {"name": "东至县", "center": {"longitude": 117.027618, "latitude": 30.111163}}, {"name": "贵池区", "center": {"longitude": 117.567264, "latitude": 30.687219}}, {"name": "青阳县", "center": {"longitude": 117.84743, "latitude": 30.63923}}, {"name": "石台县", "center": {"longitude": 117.486306, "latitude": 30.210313}}, {"name": "阜阳市", "center": {"longitude": 115.814504, "latitude": 32.890479}}, {"name": "阜南县", "center": {"longitude": 115.595643, "latitude": 32.658297}}, {"name": "界首市", "center": {"longitude": 115.374821, "latitude": 33.258244}}, {"name": "临泉县", "center": {"longitude": 115.263115, "latitude": 33.039715}}, {"name": "太和县", "center": {"longitude": 115.621941, "latitude": 33.160327}}, {"name": "颍东区", "center": {"longitude": 115.856762, "latitude": 32.912477}}, {"name": "颍泉区", "center": {"longitude": 115.80835, "latitude": 32.925211}}, {"name": "颍上县", "center": {"longitude": 116.256772, "latitude": 32.653211}}, {"name": "颍州区", "center": {"longitude": 115.806942, "latitude": 32.883468}}, {"name": "合肥市", "center": {"longitude": 117.227219, "latitude": 31.820591}}, {"name": "包河区", "center": {"longitude": 117.309519, "latitude": 31.793859}}, {"name": "巢湖市", "center": {"longitude": 117.890354, "latitude": 31.624522}}, {"name": "肥西县", "center": {"longitude": 117.157981, "latitude": 31.706809}}, {"name": "肥东县", "center": {"longitude": 117.469382, "latitude": 31.88794}}, {"name": "庐阳区", "center": {"longitude": 117.264786, "latitude": 31.878589}}, {"name": "庐江县", "center": {"longitude": 117.2882, "latitude": 31.256524}}, {"name": "蜀山区", "center": {"longitude": 117.260521, "latitude": 31.85124}}, {"name": "瑶海区", "center": {"longitude": 117.309546, "latitude": 31.857917}}, {"name": "长丰县", "center": {"longitude": 117.167564, "latitude": 32.478018}}, {"name": "黄山市", "center": {"longitude": 118.338272, "latitude": 29.715185}}, {"name": "黄山区", "center": {"longitude": 118.141567, "latitude": 30.272942}}, {"name": "徽州区", "center": {"longitude": 118.336743, "latitude": 29.827271}}, {"name": "祁门县", "center": {"longitude": 117.717396, "latitude": 29.854055}}, {"name": "歙县", "center": {"longitude": 118.415345, "latitude": 29.861379}}, {"name": "屯溪区", "center": {"longitude": 118.315329, "latitude": 29.696108}}, {"name": "休宁县", "center": {"longitude": 118.193618, "latitude": 29.784124}}, {"name": "黟县", "center": {"longitude": 117.938373, "latitude": 29.924805}}, {"name": "淮南市", "center": {"longitude": 117.018399, "latitude": 32.587117}}, {"name": "八公山区", "center": {"longitude": 116.83349, "latitude": 32.631379}}, {"name": "大通区", "center": {"longitude": 117.053314, "latitude": 32.631519}}, {"name": "凤台县", "center": {"longitude": 116.71105, "latitude": 32.709444}}, {"name": "潘集区", "center": {"longitude": 116.834715, "latitude": 32.77208}}, {"name": "寿县", "center": {"longitude": 116.798232, "latitude": 32.545109}}, {"name": "田家庵区", "center": {"longitude": 117.017349, "latitude": 32.647277}}, {"name": "谢家集区", "center": {"longitude": 116.859188, "latitude": 32.600037}}, {"name": "淮北市", "center": {"longitude": 116.798265, "latitude": 33.955844}}, {"name": "杜集区", "center": {"longitude": 116.828133, "latitude": 33.991451}}, {"name": "烈山区", "center": {"longitude": 116.813042, "latitude": 33.895139}}, {"name": "濉溪县", "center": {"longitude": 116.766298, "latitude": 33.915477}}, {"name": "相山区", "center": {"longitude": 116.794344, "latitude": 33.959892}}, {"name": "六安市", "center": {"longitude": 116.520139, "latitude": 31.735456}}, {"name": "霍邱县", "center": {"longitude": 116.277911, "latitude": 32.353038}}, {"name": "霍山县", "center": {"longitude": 116.351892, "latitude": 31.410561}}, {"name": "金寨县", "center": {"longitude": 115.934366, "latitude": 31.72717}}, {"name": "金安区", "center": {"longitude": 116.539173, "latitude": 31.750119}}, {"name": "舒城县", "center": {"longitude": 116.948736, "latitude": 31.462234}}, {"name": "叶集区", "center": {"longitude": 115.925271, "latitude": 31.863693}}, {"name": "裕安区", "center": {"longitude": 116.479829, "latitude": 31.738183}}, {"name": "马鞍山市", "center": {"longitude": 118.507011, "latitude": 31.67044}}, {"name": "博望区", "center": {"longitude": 118.844538, "latitude": 31.558471}}, {"name": "当涂县", "center": {"longitude": 118.497972, "latitude": 31.571213}}, {"name": "含山县", "center": {"longitude": 118.101421, "latitude": 31.735598}}, {"name": "和县", "center": {"longitude": 118.353667, "latitude": 31.742293}}, {"name": "花山区", "center": {"longitude": 118.492565, "latitude": 31.71971}}, {"name": "雨山区", "center": {"longitude": 118.498578, "latitude": 31.682132}}, {"name": "铜陵市", "center": {"longitude": 117.81154, "latitude": 30.945515}}, {"name": "枞阳县", "center": {"longitude": 117.250594, "latitude": 30.706018}}, {"name": "郊区", "center": {"longitude": 117.768026, "latitude": 30.821069}}, {"name": "铜官区", "center": {"longitude": 117.85616, "latitude": 30.936272}}, {"name": "义安区", "center": {"longitude": 117.791544, "latitude": 30.952823}}, {"name": "宿州市", "center": {"longitude": 116.964195, "latitude": 33.647309}}, {"name": "砀山县", "center": {"longitude": 116.367095, "latitude": 34.442561}}, {"name": "灵璧县", "center": {"longitude": 117.549395, "latitude": 33.554604}}, {"name": "泗县", "center": {"longitude": 117.910629, "latitude": 33.482982}}, {"name": "萧县", "center": {"longitude": 116.947349, "latitude": 34.188732}}, {"name": "埇桥区", "center": {"longitude": 116.977203, "latitude": 33.64059}}, {"name": "芜湖市", "center": {"longitude": 118.432941, "latitude": 31.352859}}, {"name": "繁昌县", "center": {"longitude": 118.198703, "latitude": 31.101782}}, {"name": "镜湖区", "center": {"longitude": 118.385009, "latitude": 31.340728}}, {"name": "鸠江区", "center": {"longitude": 118.391734, "latitude": 31.369373}}, {"name": "南陵县", "center": {"longitude": 118.334359, "latitude": 30.914922}}, {"name": "三山区", "center": {"longitude": 118.268101, "latitude": 31.219568}}, {"name": "无为县", "center": {"longitude": 117.902366, "latitude": 31.303167}}, {"name": "芜湖县", "center": {"longitude": 118.576124, "latitude": 31.134809}}, {"name": "弋江区", "center": {"longitude": 118.372655, "latitude": 31.311756}}, {"name": "宣城市", "center": {"longitude": 118.75868, "latitude": 30.940195}}, {"name": "广德县", "center": {"longitude": 119.420935, "latitude": 30.877555}}, {"name": "绩溪县", "center": {"longitude": 118.578519, "latitude": 30.067533}}, {"name": "泾县", "center": {"longitude": 118.419859, "latitude": 30.688634}}, {"name": "旌德县", "center": {"longitude": 118.549861, "latitude": 30.298142}}, {"name": "郎溪县", "center": {"longitude": 119.179656, "latitude": 31.126412}}, {"name": "宁国市", "center": {"longitude": 118.983171, "latitude": 30.633882}}, {"name": "宣州区", "center": {"longitude": 118.785561, "latitude": 30.944076}}, {"name": "河南省", "center": {"longitude": 113.753394, "latitude": 34.765869}}, {"name": "安阳市", "center": {"longitude": 114.392392, "latitude": 36.097577}}, {"name": "安阳县", "center": {"longitude": 114.130207, "latitude": 36.130584}}, {"name": "北关区", "center": {"longitude": 114.355742, "latitude": 36.10766}}, {"name": "滑县", "center": {"longitude": 114.519311, "latitude": 35.575417}}, {"name": "林州市", "center": {"longitude": 113.820129, "latitude": 36.083046}}, {"name": "龙安区", "center": {"longitude": 114.301331, "latitude": 36.076225}}, {"name": "内黄县", "center": {"longitude": 114.901452, "latitude": 35.971704}}, {"name": "汤阴县", "center": {"longitude": 114.357763, "latitude": 35.924514}}, {"name": "文峰区", "center": {"longitude": 114.357082, "latitude": 36.090468}}, {"name": "殷都区", "center": {"longitude": 114.303553, "latitude": 36.10989}}, {"name": "鹤壁市", "center": {"longitude": 114.297309, "latitude": 35.748325}}, {"name": "鹤山区", "center": {"longitude": 114.163258, "latitude": 35.954611}}, {"name": "浚县", "center": {"longitude": 114.55091, "latitude": 35.67636}}, {"name": "淇滨区", "center": {"longitude": 114.298789, "latitude": 35.741592}}, {"name": "淇县", "center": {"longitude": 114.208828, "latitude": 35.622507}}, {"name": "山城区", "center": {"longitude": 114.184318, "latitude": 35.898033}}, {"name": "焦作市", "center": {"longitude": 113.241823, "latitude": 35.215893}}, {"name": "博爱县", "center": {"longitude": 113.064379, "latitude": 35.171045}}, {"name": "解放区", "center": {"longitude": 113.230816, "latitude": 35.240282}}, {"name": "马村区", "center": {"longitude": 113.322332, "latitude": 35.256108}}, {"name": "孟州市", "center": {"longitude": 112.791401, "latitude": 34.907315}}, {"name": "沁阳市", "center": {"longitude": 112.950716, "latitude": 35.087539}}, {"name": "山阳区", "center": {"longitude": 113.254881, "latitude": 35.214507}}, {"name": "温县", "center": {"longitude": 113.08053, "latitude": 34.940189}}, {"name": "武陟县", "center": {"longitude": 113.401679, "latitude": 35.099378}}, {"name": "修武县", "center": {"longitude": 113.447755, "latitude": 35.223514}}, {"name": "中站区", "center": {"longitude": 113.182946, "latitude": 35.236819}}, {"name": "开封市", "center": {"longitude": 114.307677, "latitude": 34.797966}}, {"name": "鼓楼区", "center": {"longitude": 114.348306, "latitude": 34.78856}}, {"name": "兰考县", "center": {"longitude": 114.821348, "latitude": 34.822211}}, {"name": "龙亭区", "center": {"longitude": 114.356076, "latitude": 34.815565}}, {"name": "杞县", "center": {"longitude": 114.783139, "latitude": 34.549174}}, {"name": "顺河回族区", "center": {"longitude": 114.364875, "latitude": 34.800458}}, {"name": "通许县", "center": {"longitude": 114.467467, "latitude": 34.480433}}, {"name": "尉氏县", "center": {"longitude": 114.193081, "latitude": 34.411494}}, {"name": "祥符区", "center": {"longitude": 114.441285, "latitude": 34.756916}}, {"name": "禹王台区", "center": {"longitude": 114.34817, "latitude": 34.777104}}, {"name": "漯河市", "center": {"longitude": 114.016536, "latitude": 33.580873}}, {"name": "临颍县", "center": {"longitude": 113.931261, "latitude": 33.828042}}, {"name": "舞阳县", "center": {"longitude": 113.609286, "latitude": 33.437876}}, {"name": "郾城区", "center": {"longitude": 114.006943, "latitude": 33.587409}}, {"name": "源汇区", "center": {"longitude": 114.017948, "latitude": 33.565441}}, {"name": "召陵区", "center": {"longitude": 114.093902, "latitude": 33.586565}}, {"name": "洛阳市", "center": {"longitude": 112.453926, "latitude": 34.620202}}, {"name": "瀍河回族区", "center": {"longitude": 112.500131, "latitude": 34.679773}}, {"name": "吉利区", "center": {"longitude": 112.589112, "latitude": 34.900467}}, {"name": "涧西区", "center": {"longitude": 112.395756, "latitude": 34.658033}}, {"name": "老城区", "center": {"longitude": 112.469766, "latitude": 34.6842}}, {"name": "栾川县", "center": {"longitude": 111.615768, "latitude": 33.785698}}, {"name": "洛宁县", "center": {"longitude": 111.653111, "latitude": 34.389197}}, {"name": "洛龙区", "center": {"longitude": 112.463833, "latitude": 34.619711}}, {"name": "孟津县", "center": {"longitude": 112.445354, "latitude": 34.825638}}, {"name": "汝阳县", "center": {"longitude": 112.473139, "latitude": 34.153939}}, {"name": "嵩县", "center": {"longitude": 112.085634, "latitude": 34.134516}}, {"name": "西工区", "center": {"longitude": 112.427914, "latitude": 34.660378}}, {"name": "新安县", "center": {"longitude": 112.13244, "latitude": 34.728284}}, {"name": "伊川县", "center": {"longitude": 112.425676, "latitude": 34.421323}}, {"name": "偃师市", "center": {"longitude": 112.789534, "latitude": 34.72722}}, {"name": "宜阳县", "center": {"longitude": 112.179238, "latitude": 34.514644}}, {"name": "南阳市", "center": {"longitude": 112.528308, "latitude": 32.990664}}, {"name": "邓州市", "center": {"longitude": 112.087493, "latitude": 32.68758}}, {"name": "方城县", "center": {"longitude": 113.012494, "latitude": 33.254391}}, {"name": "南召县", "center": {"longitude": 112.429133, "latitude": 33.489877}}, {"name": "内乡县", "center": {"longitude": 111.849392, "latitude": 33.044864}}, {"name": "社旗县", "center": {"longitude": 112.948245, "latitude": 33.056109}}, {"name": "唐河县", "center": {"longitude": 112.807636, "latitude": 32.681335}}, {"name": "桐柏县", "center": {"longitude": 113.428287, "latitude": 32.380073}}, {"name": "宛城区", "center": {"longitude": 112.539558, "latitude": 33.003784}}, {"name": "卧龙区", "center": {"longitude": 112.528789, "latitude": 32.989877}}, {"name": "淅川县", "center": {"longitude": 111.490964, "latitude": 33.13782}}, {"name": "西峡县", "center": {"longitude": 111.47353, "latitude": 33.307294}}, {"name": "新野县", "center": {"longitude": 112.360026, "latitude": 32.520805}}, {"name": "镇平县", "center": {"longitude": 112.234697, "latitude": 33.03411}}, {"name": "平顶山市", "center": {"longitude": 113.192661, "latitude": 33.766169}}, {"name": "宝丰县", "center": {"longitude": 113.054801, "latitude": 33.868434}}, {"name": "郏县", "center": {"longitude": 113.212609, "latitude": 33.971787}}, {"name": "鲁山县", "center": {"longitude": 112.908202, "latitude": 33.738293}}, {"name": "汝州市", "center": {"longitude": 112.844517, "latitude": 34.167029}}, {"name": "石龙区", "center": {"longitude": 112.898818, "latitude": 33.898713}}, {"name": "卫东区", "center": {"longitude": 113.335192, "latitude": 33.734706}}, {"name": "舞钢市", "center": {"longitude": 113.516343, "latitude": 33.314033}}, {"name": "新华区", "center": {"longitude": 113.293977, "latitude": 33.737251}}, {"name": "叶县", "center": {"longitude": 113.357239, "latitude": 33.626731}}, {"name": "湛河区", "center": {"longitude": 113.320873, "latitude": 33.725681}}, {"name": "濮阳市", "center": {"longitude": 115.029216, "latitude": 35.761829}}, {"name": "范县", "center": {"longitude": 115.504201, "latitude": 35.851906}}, {"name": "华龙区", "center": {"longitude": 115.074151, "latitude": 35.777346}}, {"name": "南乐县", "center": {"longitude": 115.204675, "latitude": 36.069476}}, {"name": "濮阳县", "center": {"longitude": 115.029078, "latitude": 35.712193}}, {"name": "清丰县", "center": {"longitude": 115.104389, "latitude": 35.88518}}, {"name": "台前县", "center": {"longitude": 115.871906, "latitude": 35.96939}}, {"name": "商丘市", "center": {"longitude": 115.656339, "latitude": 34.414961}}, {"name": "梁园区", "center": {"longitude": 115.613965, "latitude": 34.443893}}, {"name": "民权县", "center": {"longitude": 115.173971, "latitude": 34.648191}}, {"name": "宁陵县", "center": {"longitude": 115.313743, "latitude": 34.460399}}, {"name": "睢县", "center": {"longitude": 115.071879, "latitude": 34.445655}}, {"name": "睢阳区", "center": {"longitude": 115.653301, "latitude": 34.388389}}, {"name": "夏邑县", "center": {"longitude": 116.131447, "latitude": 34.237553}}, {"name": "永城市", "center": {"longitude": 116.4495, "latitude": 33.929291}}, {"name": "虞城县", "center": {"longitude": 115.828319, "latitude": 34.400835}}, {"name": "柘城县", "center": {"longitude": 115.305708, "latitude": 34.091082}}, {"name": "三门峡市", "center": {"longitude": 111.200367, "latitude": 34.772792}}, {"name": "湖滨区", "center": {"longitude": 111.188397, "latitude": 34.770886}}, {"name": "灵宝市", "center": {"longitude": 110.89422, "latitude": 34.516828}}, {"name": "卢氏县", "center": {"longitude": 111.047858, "latitude": 34.054324}}, {"name": "渑池县", "center": {"longitude": 111.761797, "latitude": 34.767951}}, {"name": "陕州区", "center": {"longitude": 111.103563, "latitude": 34.720547}}, {"name": "义马市", "center": {"longitude": 111.87448, "latitude": 34.7474}}, {"name": "许昌市", "center": {"longitude": 113.852454, "latitude": 34.035771}}, {"name": "建安区", "center": {"longitude": 113.822983, "latitude": 34.12466}},